timestamp,q[0],q[1],q[2],q[3],delta_q_reset[0],delta_q_reset[1],delta_q_reset[2],delta_q_reset[3],quat_reset_counter,lat_x,lon_x,alt_x,alt_ellipsoid_x,delta_alt,eph_x,epv_x,terrain_alt,lat_lon_reset_counter,alt_reset_counter,terrain_alt_valid,dead_reckoning,time_utc_usec,lat_y,lon_y,alt_y,alt_ellipsoid_y,s_variance_m_s,c_variance_rad,eph_y,epv_y,hdop,vdop,noise_per_ms,jamming_indicator,vel_m_s,vel_n_m_s,vel_e_m_s,vel_d_m_s,cog_rad,timestamp_time_relative,heading_offset,fix_type,vel_ned_valid,satellites_used,ref_lat,ref_lon,x,y,z,delta_xy[0],delta_xy[1],delta_z,vx,vy,vz,z_deriv,delta_vxy[0],delta_vxy[1],delta_vz,ax,ay,az,heading_y,delta_heading,ref_alt,dist_bottom,eph,epv,evh,evv,xy_valid,z_valid,v_xy_valid,v_z_valid,xy_reset_counter,z_reset_counter,vxy_reset_counter,vz_reset_counter,heading_reset_counter,xy_global,z_global,dist_bottom_valid,label
258725029,-0.3252074,0.010554437,-0.006517632,0.94556135,0.9999948,-4.61E-10,1.58E-09,0.0032373846,3,36.20481158,138.2529156,51.336754,86.740776,0,2.718645,3.9270613,51.236664,2,0,1,0,0,362048117,1382529164,49204,86300,0.321,2.0173786,2.039,3.0080001,0.84,1.3,102,47,0.020000001,0.011000001,-0.017,0.042000003,0,0,0,3,1,11,36.2048055,138.2529121,0.6761299,0.31770122,0.3620774,-0.015382085,0.016268428,0,0.005889217,0.0051052393,0.06879349,-0.00041353144,-0.031618506,-0.00430735,-0.337511,0.036738064,0.019048331,0.022897149,-2.478927,0.0064747804,51.69883,0.100087196,0.5067431,0.3762028,0.14663771,0.08083571,1,1,1,1,2,0,2,1,3,1,1,1,benign
258842609,-0.3252074,0.010554437,-0.006517632,0.94556135,0.9999948,-4.61E-10,1.58E-09,0.0032373846,3,36.20481158,138.2529156,51.336754,86.740776,0,2.718645,3.9270613,51.236664,2,0,1,0,0,362048117,1382529164,49200.6,86296.6,0.321,2.01737874,2.0384,3.00740008,0.84,1.3,102,47,0.0176000008,0.00980000088,-0.0148,0.0440000024,0,0,0,3,1,11,36.2048055,138.2529121,0.6761299,0.31770122,0.3620774,-0.015382085,0.016268428,0,0.005889217,0.0051052393,0.06879349,-0.00041353144,-0.031618506,-0.00430735,-0.337511,0.036738064,0.019048331,0.022897149,-2.478927,0.0064747804,51.69883,0.100087196,0.5067431,0.3762028,0.14663771,0.08083571,1,1,1,1,2,0,2,1,3,1,1,1,benign
258847608,-0.3252074,0.010554437,-0.006517632,0.94556135,0.9999948,-4.61E-10,1.58E-09,0.0032373846,3,36.20481158,138.2529156,51.3366185,86.740643,0,2.7187095,3.927086,51.2363185,2,0,1,0,0,362048117,1382529164,49197.2,86293.2,0.321,2.01737888,2.0378,3.00680006,0.84,1.3,102,47,0.0152000006,0.00860000076,-0.0126,0.0460000018,0,0,0,3,1,11,36.2048055,138.2529121,0.67622478,0.317630395,0.36221137,-0.015382085,0.016268428,0,0.00593595935,0.00508592835,0.068870682,-0.0002038815595,-0.031618506,-0.00430735,-0.337511,0.0209719185,0.01643981,0.023494433,-2.47893015,0.0064747804,51.69883,0.1002990905,0.50708897,0.37646023,0.146858335,0.080882985,1,1,1,1,2,0,2,1,3,1,1,1,benign
258852607,-0.32520434,0.010556366,-0.006516953,0.9455624,0.9999948,-4.61E-10,1.58E-09,0.0032373846,3,36.20481158,138.2529156,51.336483,86.74051,0,2.718774,3.9271107,51.235973,2,0,1,0,0,362048117,1382529164,49193.8,86289.8,0.321,2.01737902,2.0372,3.00620004,0.84,1.3,102,47,0.0128000004,0.00740000064,-0.0104,0.0480000012,0,0,0,3,1,11,36.2048055,138.2529121,0.67631966,0.31755957,0.36234534,-0.015382085,0.016268428,0,0.0059827017,0.0050666174,0.068947874,5.77E-06,-0.031618506,-0.00430735,-0.337511,0.005205773,0.013831289,0.024091717,-2.4789333,0.0064747804,51.69883,0.100510985,0.50743484,0.37671766,0.14707896,0.08093026,1,1,1,1,2,0,2,1,3,1,1,1,benign
258902598,-0.32521376,0.010552205,-0.0065011843,0.9455594,0.9999948,-4.61E-10,1.58E-09,0.0032373846,3,36.20481159,138.2529156,51.335785,86.738014,0,2.718747,3.92709048,51.2362134,2,0,1,0,0,362048117,1382529164,49190.4,86286.4,0.321,2.01737916,2.0366,3.00560002,0.84,1.3,102,47,0.0104000002,0.00620000052,-0.0082,0.0500000006,0,0,0,3,1,11,36.2048055,138.2529121,0.67690314,0.3171499367,0.3629628733,-0.015382085,0.016268428,0,0.0057204968,0.002702197133,0.06991472933,0.001516103214,-0.031618506,-0.00430735,-0.337511,-0.2575728847,-0.2514371873,0.2173937347,-2.479119433,0.0064747804,51.69883,0.1003406567,0.5098152133,0.3769914333,0.1485616867,0.08111772,1,1,1,1,2,0,2,1,3,1,1,1,benign
258922223,-0.325076355,0.0106009495,-0.0065111888,0.945606,0.9999948,-4.61E-10,1.58E-09,0.0032373846,3,36.20481159,138.2529156,51.335087,86.735518,0,2.71872,3.92707026,51.2364538,2,0,1,0,0,362048117,1382529164,49187,86283,0.321,2.0173793,2.036,3.005,0.84,1.3,102,47,0.008,0.0050000004,-0.006,0.052,0,0,0,3,1,11,36.2048055,138.2529121,0.67748662,0.3167403033,0.3635804067,-0.015382085,0.016268428,0,0.0054582919,0.0003377768667,0.07088158467,0.003026438107,-0.031618506,-0.00430735,-0.337511,-0.5203515423,-0.5167056637,0.4106957523,-2.479305567,0.0064747804,51.69883,0.1001703283,0.5121955867,0.3772652067,0.1500444133,0.08130518,1,1,1,1,2,0,2,1,3,1,1,1,benign
258952588,-0.32493895,0.010649694,-0.0065211933,0.9456526,0.9999948,-4.61E-10,1.58E-09,0.0032373846,3,36.2048116,138.2529156,51.334389,86.733022,0,2.718693,3.92705004,51.2366942,2,0,1,0,0,362048116.9,1382529164,49186.25,86282.25,0.320250001,2.01737936,2.03540001,3.0044,0.84,1.3,102,47.1,0.00850000005,0.00395000038,-0.00524999995,0.0554500005,0,0,0,3,1,11,36.2048055,138.2529121,0.6780701,0.31633067,0.36419794,-0.015382085,0.016268428,0,0.005196087,-0.0020266434,0.07184844,0.004536773,-0.031618506,-0.00430735,-0.337511,-0.7831302,-0.78197414,0.60399777,-2.4794917,0.0064747804,51.69883,0.1,0.51457596,0.37753898,0.15152714,0.08149264,1,1,1,1,2,0,2,1,3,1,1,1,benign
258997580,-0.32523155,0.010716877,-0.006385304,0.9455522,0.9999948,-4.61E-10,1.58E-09,0.0032373846,3,36.2048116,138.2529156,51.333691,86.730526,0,2.718666,3.92702982,51.2369346,2,0,1,0,0,362048116.8,1382529164,49185.5,86281.5,0.319500002,2.01737942,2.03480002,3.0038,0.84,1.3,102,47.2,0.0090000001,0.00290000036,-0.0044999999,0.058900001,0,0,0,3,1,11,36.2048055,138.2529121,0.6787584,0.31597927,0.3650167,-0.015382085,0.016268428,0,0.006558302,0.0016770755,0.07146244,0.00476189375,-0.031618506,-0.00430735,-0.337511,-0.437258675,-0.24681757,0.29570855,-2.47888825,0.0064747804,51.69883,0.1,0.510642945,0.37660044,0.14927672,0.081153292,1,1,1,1,2,0,2,1,3,1,1,1,benign
259042573,-0.325364245,0.0106522285,-0.0063880315,0.9455072,0.9999948,-4.61E-10,1.58E-09,0.0032373846,3,36.20481161,138.2529156,51.332993,86.72803,0,2.718639,3.9270096,51.237175,2,0,1,0,0,362048116.7,1382529164,49184.75,86280.75,0.318750003,2.01737948,2.03420003,3.0032,0.84,1.3,102,47.3,0.00950000015,0.00185000034,-0.00374999985,0.0623500015,0,0,0,3,1,11,36.2048055,138.2529121,0.6794467,0.31562787,0.36583546,-0.015382085,0.016268428,0,0.007920517,0.0053807944,0.07107644,0.0049870145,-0.031618506,-0.00430735,-0.337511,-0.09138715,0.288339,-0.01258067,-2.4782848,0.0064747804,51.69883,0.1,0.50670993,0.3756619,0.1470263,0.080813944,1,1,1,1,2,0,2,1,3,1,1,1,benign
259047572,-0.32549694,0.01058758,-0.006390759,0.9454622,0.9999948,-4.61E-10,1.58E-09,0.0032373846,3,36.20481162,138.2529156,51.3325398,86.7257712,0,2.71863154,3.92700302,51.237545,2,0,1,0,0,362048116.6,1382529164,49184,86280,0.318000004,2.01737954,2.03360004,3.0026,0.84,1.3,102,47.4,0.0100000002,0.00080000032,-0.0029999998,0.065800002,0,0,0,3,1,11,36.2048055,138.2529121,0.6799124667,0.31542742,0.3663859867,-0.015382085,0.016268428,0,0.008557716333,0.0050328596,0.07113930667,0.0053477432,-0.031618506,-0.00430735,-0.337511,0.01964168,0.2711467,-0.05883493,-2.4785226,0.0064747804,51.69883,0.1,0.50933341,0.3761035833,0.1486624367,0.08103169933,1,1,1,1,2,0,2,1,3,1,1,1,benign
259102562,-0.32528996,0.010757028,-0.00645099,0.9455312,0.9999948,-4.61E-10,1.58E-09,0.0032373846,3,36.20481162,138.2529156,51.3320866,86.7235124,0,2.71862408,3.92699644,51.237915,2,0,1,0,0,362048116.5,1382529164,49183.25,86279.25,0.317250005,2.0173796,2.03300005,3.002,0.84,1.3,102,47.5,0.01050000025,-0.0002499997,-0.00224999975,0.0692500025,0,0,0,3,1,11,36.2048055,138.2529121,0.6803782333,0.31522697,0.3669365133,-0.015382085,0.016268428,0,0.009194915667,0.0046849248,0.07120217333,0.0057084719,-0.031618506,-0.00430735,-0.337511,0.13067051,0.2539544,-0.10508919,-2.4787604,0.0064747804,51.69883,0.1,0.51195689,0.3765452667,0.1502985733,0.08124945467,1,1,1,1,2,0,2,1,3,1,1,1,benign
259152553,-0.32517162,0.01065312,-0.0066040847,0.94557196,0.9999948,-4.61E-10,1.58E-09,0.0032373846,3,36.20481163,138.2529156,51.3316334,86.7212536,0,2.71861662,3.92698986,51.238285,2,0,1,0,0,362048116.4,1382529164,49182.5,86278.5,0.316500006,2.01737966,2.03240006,3.0014,0.84,1.3,102,47.6,0.0110000003,-0.00129999972,-0.0014999997,0.072700003,0,0,0,3,1,11,36.2048055,138.2529121,0.680844,0.31502652,0.36748704,-0.015382085,0.016268428,0,0.009832115,0.00433699,0.07126504,0.0060692006,-0.031618506,-0.00430735,-0.337511,0.24169934,0.2367621,-0.15134345,-2.4789982,0.0064747804,51.69883,0.1,0.51458037,0.37698695,0.15193471,0.08146721,1,1,1,1,2,0,2,1,3,1,1,1,benign
259197545,-0.32530734,0.010754339,-0.006483817,0.945525,0.9999948,-4.61E-10,1.58E-09,0.0032373846,3,36.20481163,138.2529156,51.3311802,86.7189948,0,2.71860916,3.92698328,51.238655,2,0,1,0,0,362048116.3,1382529164,49181.75,86277.75,0.315750007,2.01737972,2.03180007,3.0008,0.84,1.3,102,47.7,0.01150000035,-0.00234999974,-0.00074999965,0.0761500035,0,0,0,3,1,11,36.2048055,138.2529121,0.68176635,0.314642175,0.3677953,-0.015382085,0.016268428,0,0.00880180515,0.00181560845,0.07132888,0.00600729605,-0.031618506,-0.00430735,-0.337511,-0.29189713,0.03829592,-0.225748775,-2.47873475,0.0064747804,51.69883,0.1,0.51054576,0.376153075,0.14933758,0.0810942,1,1,1,1,2,0,2,1,3,1,1,1,benign
259252537,-0.32542056,0.010733371,-0.006450599,0.94548655,0.9999948,-4.61E-10,1.58E-09,0.0032373846,3,36.20481164,138.2529156,51.330727,86.716736,0,2.7186017,3.9269767,51.239025,2,0,1,0,0,362048116.2,1382529164,49181,86277,0.315000008,2.01737978,2.03120008,3.0002,0.84,1.3,102,47.8,0.0120000004,-0.00339999976,4.00E-10,0.079600004,0,0,0,3,1,11,36.2048055,138.2529121,0.6826887,0.31425783,0.36810356,-0.015382085,0.016268428,0,0.0077714953,-0.0007057731,0.07139272,0.0059453915,-0.031618506,-0.00430735,-0.337511,-0.8254936,-0.16017026,-0.3001541,-2.4784713,0.0064747804,51.69883,0.1,0.50651115,0.3753192,0.14674045,0.08072119,1,1,1,1,2,0,2,1,3,1,1,1,benign
259302527,-0.32532135,0.010841446,-0.00637548,0.9455199,0.9999948,-4.61E-10,1.58E-09,0.0032373846,3,36.20481164,138.2529156,51.3305156,86.7147648,0,2.71856952,3.92696056,51.2386588,2,0,1,0,0,362048116.1,1382529164,49180.25,86276.25,0.314250009,2.01737984,2.03060009,2.9996,0.84,1.3,102,47.9,0.01250000045,-0.00444999978,0.00075000045,0.0830500045,0,0,0,3,1,11,36.2048055,138.2529121,0.68347933,0.313917115,0.36833827,-0.015382085,0.016268428,0,0.00865160115,-0.00016738447,0.071865032,0.00627467455,-0.031618506,-0.00430735,-0.337511,-0.61048959,0.15150562,-0.26037516,-2.4785669,0.0064747804,51.69883,0.1,0.509702925,0.37546366,0.148735345,0.0809544,1,1,1,1,2,0,2,1,3,1,1,1,benign
259342521,-0.325351315,0.0108102465,-0.0063969325,0.9455098,0.9999948,-4.61E-10,1.58E-09,0.0032373846,3,36.20481164,138.2529156,51.3303042,86.7127936,0,2.71853734,3.92694442,51.2382926,2,0,1,0,0,362048116,1382529165,49179.5,86275.5,0.31350001,2.0173799,2.0300001,2.999,0.84,1.3,102,48,0.0130000005,-0.0054999998,0.0015000005,0.086500005,0,0,0,3,1,11,36.2048055,138.2529121,0.68426996,0.3135764,0.36857298,-0.015382085,0.016268428,0,0.009531707,0.00037100416,0.072337344,0.0066039576,-0.031618506,-0.00430735,-0.337511,-0.39548558,0.4631815,-0.22059622,-2.4786625,0.0064747804,51.69883,0.1,0.5128947,0.37560812,0.15073024,0.08118761,1,1,1,1,2,0,2,1,3,1,1,1,benign
259347519,-0.32538128,0.010779047,-0.006418385,0.9454997,0.9999948,-4.61E-10,1.58E-09,0.0032373846,3,36.20481164,138.2529156,51.3300928,86.7108224,0,2.71850516,3.92692828,51.2379264,2,0,1,0,0,362048115.9,1382529165,49178.75,86274.75,0.312750011,2.01737996,2.02940011,2.9984,0.84,1.3,102,48.1,0.01350000055,-0.00654999982,0.00225000055,0.0899500055,0,0,0,3,1,11,36.2048055,138.2529121,0.6838630067,0.3137459,0.36876878,-0.015382085,0.016268428,0,0.008832719,0.00030415471,0.07307852933,0.007243248733,-0.031618506,-0.00430735,-0.337511,-0.4201460967,0.4824701667,0.05160354,-2.478644933,0.0064747804,51.69883,0.1,0.5104784,0.3752302267,0.14919465,0.08097364333,1,1,1,1,2,0,2,1,3,1,1,1,benign
259397510,-0.3254192,0.010782187,-0.006429876,0.94548655,0.9999948,-4.61E-10,1.58E-09,0.0032373846,3,36.20481164,138.2529156,51.3298814,86.7088512,0,2.71847298,3.92691214,51.2375602,2,0,1,0,0,362048115.8,1382529165,49178,86274,0.312000012,2.01738002,2.02880012,2.9978,0.84,1.3,102,48.2,0.0140000006,-0.00759999984,0.0030000006,0.093400006,0,0,0,3,1,11,36.2048055,138.2529121,0.6834560533,0.3139154,0.36896458,-0.015382085,0.016268428,0,0.008133731,0.00023730526,0.07381971467,0.007882539867,-0.031618506,-0.00430735,-0.337511,-0.4448066133,0.5017588333,0.3238033,-2.478627367,0.0064747804,51.69883,0.1,0.5080621,0.3748523333,0.14765906,0.08075967667,1,1,1,1,2,0,2,1,3,1,1,1,benign
259452501,-0.32535452,0.010744015,-0.006523717,0.94550866,0.9999948,-4.61E-10,1.58E-09,0.0032373846,3,36.20481164,138.2529156,51.32967,86.70688,0,2.7184408,3.926896,51.237194,2,0,1,0,0,362048115.7,1382529165,49177.25,86273.25,0.311250013,2.01738008,2.02820013,2.9972,0.84,1.3,102,48.3,0.01450000065,-0.00864999986,0.00375000065,0.0968500065,0,0,0,3,1,11,36.2048055,138.2529121,0.6830491,0.3140849,0.36916038,-0.015382085,0.016268428,0,0.007434743,0.00017045581,0.0745609,0.008521831,-0.031618506,-0.00430735,-0.337511,-0.46946713,0.5210475,0.59600306,-2.4786098,0.0064747804,51.69883,0.1,0.5056458,0.37447444,0.14612347,0.08054571,1,1,1,1,2,0,2,1,3,1,1,1,benign
259502492,-0.3254202,0.010769646,-0.006487934,0.9454859,0.9999948,-4.61E-10,1.58E-09,0.0032373846,3,36.20481165,138.2529156,51.329022,86.704494,0,2.71842034,3.92692334,51.2358466,2,0,1,0,0,362048115.6,1382529165,49176.5,86272.5,0.310500014,2.01738014,2.02760014,2.9966,0.84,1.3,102,48.4,0.0150000007,-0.00969999988,0.0045000007,0.100300007,0,0,0,3,1,11,36.2048055,138.2529121,0.68231165,0.31436739,0.36973096,-0.015382085,0.016268428,0,0.0070654508,-0.001329223395,0.073155945,0.0072981055,-0.031618506,-0.00430735,-0.337511,-0.1904407125,0.14912488,0.245788133,-2.4785109,0.0064747804,51.69883,0.1,0.5088128,0.375704605,0.148114905,0.08087537,1,1,1,1,2,0,2,1,3,1,1,1,benign
259542485,-0.32543333,0.0107799905,-0.00647266865,0.9454814,0.9999948,-4.61E-10,1.58E-09,0.0032373846,3,36.20481165,138.2529156,51.328374,86.702108,0,2.71839988,3.92695068,51.2344992,2,0,1,0,0,362048115.5,1382529165,49175.75,86271.75,0.309750015,2.0173802,2.02700015,2.996,0.84,1.3,102,48.5,0.01550000075,-0.0107499999,0.00525000075,0.1037500075,0,0,0,3,1,11,36.2048055,138.2529121,0.6815742,0.31464988,0.37030154,-0.015382085,0.016268428,0,0.0066961586,-0.0028289026,0.07175099,0.00607438,-0.031618506,-0.00430735,-0.337511,0.088585705,-0.22279774,-0.104426794,-2.478412,0.0064747804,51.69883,0.1,0.5119798,0.37693477,0.15010634,0.08120503,1,1,1,1,2,0,2,1,3,1,1,1,benign
259547484,-0.32544646,0.010790335,-0.0064574033,0.9454769,0.9999948,-4.61E-10,1.58E-09,0.0032373846,3,36.20481165,138.2529156,51.327726,86.699722,0,2.71837942,3.92697802,51.2331518,2,0,1,0,0,362048115.4,1382529165,49175,86271,0.309000016,2.01738026,2.02640016,2.9954,0.84,1.3,102,48.6,0.0160000008,-0.01179999992,0.0060000008,0.107200008,0,0,0,3,1,11,36.2048055,138.2529121,0.6825482333,0.31364586,0.37099995,-0.015382085,0.016268428,0,0.007011887633,-0.004012562833,0.07222114333,0.006873706667,-0.031618506,-0.00430735,-0.337511,0.07710800833,-0.1657021833,-0.1899171627,-2.478376833,0.0064747804,51.69883,0.1,0.5096854,0.3765913567,0.1487235767,0.0810113,1,1,1,1,2,0,2,1,3,1,1,1,benign
259602474,-0.3254746,0.010755232,-0.006524924,0.9454672,0.9999948,-4.61E-10,1.58E-09,0.0032373846,3,36.20481165,138.2529156,51.327078,86.697336,0,2.71835896,3.92700536,51.2318044,2,0,1,0,0,362048115.3,1382529165,49174.25,86270.25,0.308250017,2.01738032,2.02580017,2.9948,0.84,1.3,102,48.7,0.01650000085,-0.01284999994,0.00675000085,0.1106500085,0,0,0,3,1,11,36.2048055,138.2529121,0.6835222667,0.31264184,0.37169836,-0.015382085,0.016268428,0,0.007327616667,-0.005196223067,0.07269129667,0.007673033333,-0.031618506,-0.00430735,-0.337511,0.06563031167,-0.1086066267,-0.2754075313,-2.478341667,0.0064747804,51.69883,0.1,0.507391,0.3762479433,0.1473408133,0.08081757,1,1,1,1,2,0,2,1,3,1,1,1,benign
259652466,-0.32549712,0.010837352,-0.0064273314,0.9454591,0.9999948,-4.61E-10,1.58E-09,0.0032373846,3,36.20481166,138.2529156,51.32643,86.69495,0,2.7183385,3.9270327,51.230457,2,0,1,0,0,362048115.2,1382529165,49173.5,86269.5,0.307500018,2.01738038,2.02520018,2.9942,0.84,1.3,102,48.8,0.0170000009,-0.01389999996,0.0075000009,0.114100009,0,0,0,3,1,11,36.2048055,138.2529121,0.6844963,0.31163782,0.37239677,-0.015382085,0.016268428,0,0.0076433457,-0.0063798833,0.07316145,0.00847236,-0.031618506,-0.00430735,-0.337511,0.054152615,-0.05151107,-0.3608979,-2.4783065,0.0064747804,51.69883,0.1,0.5050966,0.37590453,0.14595805,0.08062384,1,1,1,1,2,0,2,1,3,1,1,1,benign
259697457,-0.3255185,0.010806384,-0.0063842037,0.9454524,0.9999948,-4.61E-10,1.58E-09,0.0032373846,3,36.20481166,138.2529156,51.325525,86.692635,0,2.7183205,3.927020983,51.22957417,2,0,1,0,0,362048115.1,1382529165,49172.75,86268.75,0.306750019,2.01738044,2.02460019,2.9936,0.84,1.3,102,48.9,0.01750000095,-0.01494999998,0.00825000095,0.1175500095,0,0,0,3,1,11,36.2048055,138.2529121,0.6855363,0.3106072267,0.3730967367,-0.015382085,0.016268428,0,0.0078591518,-0.0072082902,0.07369514667,0.009327232333,-0.031618506,-0.00430735,-0.337511,-0.04945922333,-0.12438232,-0.3538909767,-2.4782647,0.0064747804,51.69883,0.1,0.5072029667,0.37600212,0.1472894433,0.08078109533,1,1,1,1,2,0,2,1,3,1,1,1,benign
259726029,-0.3255440767,0.01079536383,-0.006395875967,0.9454436167,0.9999948,-4.61E-10,1.58E-09,0.0032373846,3,36.20481167,138.2529156,51.32462,86.69032,0,2.7183025,3.927009267,51.22869133,2,0,1,0,0,362048115,1382529165,49172,86268,0.30600002,2.0173805,2.0240002,2.993,0.84,1.3,102,49,0.018000001,-0.016,0.009000001,0.12100001,0,0,0,3,1,11,36.2048055,138.2529121,0.6865763,0.3095766333,0.3737967033,-0.015382085,0.016268428,0,0.0080749579,-0.0080366971,0.07422884333,0.01018210467,-0.031618506,-0.00430735,-0.337511,-0.1530710617,-0.19725357,-0.3468840533,-2.4782229,0.0064747804,51.69883,0.1,0.5093093333,0.37609971,0.1486208367,0.08093835067,1,1,1,1,2,0,2,1,3,1,1,1,benign
259742450,-0.3255696533,0.01078434367,-0.006407548233,0.9454348333,0.9999948,-4.61E-10,1.58E-09,0.0032373846,3,36.20481168,138.2529155,51.323715,86.688005,0,2.7182845,3.92699755,51.2278085,2,0,1,0,0,362048115,1382529165,49170,86266,0.3068800192,2.017380596,2.023400192,2.99244,0.84,1.3,102,48.56,0.01976000108,-0.01375999988,0.00676000088,0.1196400098,0,0,0,3,1,11,36.2048055,138.2529121,0.6876163,0.30854604,0.37449667,-0.015382085,0.016268428,0,0.008290764,-0.008865104,0.07476254,0.011036977,-0.031618506,-0.00430735,-0.337511,-0.2566829,-0.27012482,-0.33987713,-2.4781811,0.0064747804,51.69883,0.1,0.5114157,0.3761973,0.14995223,0.081095606,1,1,1,1,2,0,2,1,3,1,1,1,benign
259747449,-0.32559523,0.0107733235,-0.0064192205,0.94542605,0.9999948,-4.61E-10,1.58E-09,0.0032373846,3,36.20481168,138.2529155,51.32281,86.68569,0,2.7182665,3.926985833,51.22692567,2,0,1,0,0,362048115,1382529165,49168,86264,0.3077600184,2.017380692,2.022800184,2.99188,0.84,1.3,102,48.12,0.02152000116,-0.01151999976,0.00452000076,0.1182800096,0,0,0,3,1,11,36.2048055,138.2529121,0.6881276,0.3080887833,0.37560747,-0.015382085,0.016268428,0,0.008689511667,-0.008380227333,0.07519205333,0.01204935167,-0.031618506,-0.00430735,-0.337511,-0.23174864,-0.06553006,-0.34189267,-2.478159067,0.0064747804,51.69883,0.1,0.5091152,0.3758539333,0.14856098,0.08090110067,1,1,1,1,2,0,2,1,3,1,1,1,benign
259802439,-0.32550332,0.010687332,-0.0064420723,0.94545853,0.9999948,-4.61E-10,1.58E-09,0.0032373846,3,36.20481169,138.2529155,51.321905,86.683375,0,2.7182485,3.926974117,51.22604283,2,0,1,0,0,362048115,1382529165,49166,86262,0.3086400176,2.017380788,2.022200176,2.99132,0.84,1.3,102,47.68,0.02328000124,-0.00927999964,0.00228000064,0.1169200094,0,0,0,3,1,11,36.2048055,138.2529121,0.6886389,0.3076315267,0.37671827,-0.015382085,0.016268428,0,0.009088259333,-0.007895350667,0.07562156667,0.01306172633,-0.031618506,-0.00430735,-0.337511,-0.20681438,0.1390647,-0.34390821,-2.478137033,0.0064747804,51.69883,0.1,0.5068147,0.3755105667,0.14716973,0.08070659533,1,1,1,1,2,0,2,1,3,1,1,1,benign
259852431,-0.32558995,0.010673809,-0.006425948,0.94542897,0.9999948,-4.61E-10,1.58E-09,0.0032373846,3,36.2048117,138.2529155,51.321,86.68106,0,2.7182305,3.9269624,51.22516,2,0,1,0,0,362048115,1382529165,49164,86260,0.3095200168,2.017380884,2.021600168,2.99076,0.84,1.3,102,47.24,0.02504000132,-0.00703999952,4.00E-05,0.1155600092,0,0,0,3,1,11,36.2048055,138.2529121,0.6891502,0.30717427,0.37782907,-0.015382085,0.016268428,0,0.009487007,-0.007410474,0.07605108,0.014074101,-0.031618506,-0.00430735,-0.337511,-0.18188012,0.34365946,-0.34592375,-2.478115,0.0064747804,51.69883,0.1,0.5045142,0.3751672,0.14577848,0.08051209,1,1,1,1,2,0,2,1,3,1,1,1,benign
259897422,-0.32560456,0.01066258,-0.0064020767,0.9454243,0.9999948,-4.61E-10,1.58E-09,0.0032373846,3,36.2048117,138.2529155,51.319767,86.678204,0,2.71823284,3.92695292,51.2245616,2,0,1,0,0,362048115,1382529164,49162,86258,0.310400016,2.01738098,2.02100016,2.9902,0.84,1.3,102,46.8,0.0268000014,-0.0047999994,-0.0021999996,0.114200009,0,0,0,3,1,11,36.2048055,138.2529121,0.689529175,0.306792975,0.37949277,-0.015382085,0.016268428,0,0.0103553255,-0.00987643325,0.077836,0.0166400855,-0.031618506,-0.00430735,-0.337511,-0.0870405663,-0.118321835,0.092601575,-2.4781091,0.0064747804,51.69883,0.1,0.50802565,0.3755685,0.147997215,0.080794675,1,1,1,1,2,0,2,1,3,1,1,1,benign
259952413,-0.32559597,0.010619543,-0.0065005724,0.94542706,0.9999948,-4.61E-10,1.58E-09,0.0032373846,3,36.20481171,138.2529155,51.318534,86.675348,0,2.71823518,3.92694344,51.2239632,2,0,1,0,0,362048115,1382529164,49160,86256,0.3112800152,2.017381076,2.020400152,2.98964,0.84,1.3,102,46.36,0.02856000148,-0.00255999928,-0.00443999972,0.1128400088,0,0,0,3,1,11,36.2048055,138.2529121,0.68990815,0.30641168,0.38115647,-0.015382085,0.016268428,0,0.011223644,-0.0123423925,0.07962092,0.01920607,-0.031618506,-0.00430735,-0.337511,0.0077989874,-0.58030313,0.5311269,-2.4781032,0.0064747804,51.69883,0.1,0.5115371,0.3759698,0.15021595,0.08107726,1,1,1,1,2,0,2,1,3,1,1,1,benign
260002404,-0.3256399,0.010740934,-0.006372283,0.94541144,0.9999948,-4.61E-10,1.58E-09,0.0032373846,3,36.20481172,138.2529155,51.317301,86.672492,0,2.71823752,3.92693396,51.2233648,2,0,1,0,0,362048115,1382529164,49158,86254,0.3121600144,2.017381172,2.019800144,2.98908,0.84,1.3,102,45.92,0.03032000156,-0.00031999916,-0.00667999984,0.1114800086,0,0,0,3,1,11,36.2048055,138.2529121,0.6907841767,0.30627448,0.3821023667,-0.015382085,0.016268428,0,0.01227887933,-0.01322311233,0.08018696,0.02003575333,-0.031618506,-0.00430735,-0.337511,0.2028641416,-0.8344254533,0.6985689667,-2.478095133,0.0064747804,51.69883,0.1,0.50921718,0.3755364533,0.1489588333,0.08089399,1,1,1,1,2,0,2,1,3,1,1,1,benign
260047396,-0.32565263,0.010621541,-0.006352707,0.94540846,0.9999948,-4.61E-10,1.58E-09,0.0032373846,3,36.20481172,138.2529155,51.316068,86.669636,0,2.71823986,3.92692448,51.2227664,2,0,1,0,0,362048115,1382529164,49156,86252,0.3130400136,2.017381268,2.019200136,2.98852,0.84,1.3,102,45.48,0.03208000164,0.00192000096,-0.00891999996,0.1101200084,0,0,0,3,1,11,36.2048055,138.2529121,0.6916602033,0.30613728,0.3830482633,-0.015382085,0.016268428,0,0.01333411467,-0.01410383217,0.080753,0.02086543667,-0.031618506,-0.00430735,-0.337511,0.3979292958,-1.088547777,0.8660110333,-2.478087067,0.0064747804,51.69883,0.1,0.50689726,0.3751031067,0.1477017167,0.08071072,1,1,1,1,2,0,2,1,3,1,1,1,benign
260052395,-0.325673685,0.0106779,-0.0063169665,0.94540083,0.9999948,-4.61E-10,1.58E-09,0.0032373846,3,36.20481173,138.2529155,51.314835,86.66678,0,2.7182422,3.926915,51.222168,2,0,1,0,0,362048115,1382529164,49154,86250,0.3139200128,2.017381364,2.018600128,2.98796,0.84,1.3,102,45.04,0.03384000172,0.00416000108,-0.01116000008,0.1087600082,0,0,0,3,1,11,36.2048055,138.2529121,0.69253623,0.30600008,0.38399416,-0.015382085,0.016268428,0,0.01438935,-0.014984552,0.08131904,0.02169512,-0.031618506,-0.00430735,-0.337511,0.59299445,-1.3426701,1.0334531,-2.478079,0.0064747804,51.69883,0.1,0.50457734,0.37466976,0.1464446,0.08052745,1,1,1,1,2,0,2,1,3,1,1,1,benign
260097387,-0.32569474,0.010734259,-0.006281226,0.9453932,0.9999948,-4.61E-10,1.58E-09,0.0032373846,3,36.20481174,138.2529155,51.31378125,86.663665,0,2.7181939,3.92693875,51.22145,2,0,1,0,0,362048115,1382529164,49152,86248,0.314800012,2.01738146,2.01800012,2.9874,0.84,1.3,102,44.6,0.0356000018,0.0064000012,-0.0134000002,0.107400008,0,0,0,3,1,11,36.2048055,138.2529121,0.693889065,0.305731115,0.385209395,-0.015382085,0.016268428,0,0.01128191125,-0.0097756687,0.0780582,0.01856286625,-0.031618506,-0.00430735,-0.337511,0.25857085,0.54780195,0.12879835,-2.47803745,0.0064747804,51.69883,0.1,0.50811595,0.375069765,0.148666135,0.080808287,1,1,1,1,2,0,2,1,3,1,1,1,benign
260152381,-0.32564238,0.01102848,-0.0062393015,0.94540817,0.9999948,-4.61E-10,1.58E-09,0.0032373846,3,36.20481175,138.2529155,51.3127275,86.66055,0,2.7181456,3.9269625,51.220732,2,0,1,0,0,362048115,1382529164,49150,86246,0.3156800112,2.017381556,2.017400112,2.98684,0.84,1.3,102,44.16,0.03736000188,0.00864000132,-0.01564000032,0.1060400078,0,0,0,3,1,11,36.2048055,138.2529121,0.6952419,0.30546215,0.38642463,-0.015382085,0.016268428,0,0.0081744725,-0.0045667854,0.07479736,0.0154306125,-0.031618506,-0.00430735,-0.337511,-0.07585275,2.438274,-0.7758564,-2.4779959,0.0064747804,51.69883,0.1,0.51165456,0.37546977,0.15088767,0.081089124,1,1,1,1,2,0,2,1,3,1,1,1,benign
260202369,-0.3256732,0.010901648,-0.0063680555,0.94539815,0.9999948,-4.61E-10,1.58E-09,0.0032373846,3,36.20481176,138.2529155,51.31167375,86.657435,0,2.7180973,3.92698625,51.220014,2,0,1,0,0,362048115,1382529164,49148,86244,0.3165600104,2.017381652,2.016800104,2.98628,0.84,1.3,102,43.72,0.03912000196,0.01088000144,-0.01788000044,0.1046800076,0,0,0,3,1,11,36.2048055,138.2529121,0.696595325,0.304009345,0.38731818,-0.015382085,0.016268428,0,0.01183626775,-0.0119927712,0.07350464,0.01402221975,-0.031618506,-0.00430735,-0.337511,-0.0735673075,0.0701516,-0.753265275,-2.4779606,0.0064747804,51.69883,0.1,0.507595215,0.375567955,0.14847289,0.080819532,1,1,1,1,2,0,2,1,3,1,1,1,benign
260242363,-0.32569367,0.010914996,-0.00631422505,0.945391275,0.9999948,-4.61E-10,1.58E-09,0.0032373846,3,36.20481178,138.2529155,51.31062,86.65432,0,2.718049,3.92701,51.219296,2,0,1,0,0,362048115,1382529163,49146,86242,0.3174400096,2.017381748,2.016200096,2.98572,0.84,1.3,102,43.28,0.04088000204,0.01312000156,-0.02012000056,0.1033200074,0,0,0,3,1,11,36.2048055,138.2529121,0.69794875,0.30255654,0.38821173,-0.015382085,0.016268428,0,0.015498063,-0.019418757,0.07221192,0.012613827,-0.031618506,-0.00430735,-0.337511,-0.071281865,-2.2979708,-0.73067415,-2.4779253,0.0064747804,51.69883,0.1,0.50353587,0.37566614,0.14605811,0.08054994,1,1,1,1,2,0,2,1,3,1,1,1,benign
260247361,-0.32571414,0.010928344,-0.0062603946,0.9453844,0.9999948,-4.61E-10,1.58E-09,0.0032373846,3,36.20481178,138.2529155,51.3095686,86.651642,0,2.71804676,3.9269998,51.2179432,2,0,1,0,0,362048115,1382529163,49144,86240,0.3183200088,2.017381844,2.015600088,2.98516,0.84,1.3,102,42.84,0.04264000212,0.01536000168,-0.02236000068,0.1019600072,0,0,0,3,1,11,36.2048055,138.2529121,0.6989704533,0.3012235333,0.3890471667,-0.015382085,0.016268428,0,0.01496372033,-0.01841238133,0.07714587333,0.01741596733,-0.031618506,-0.00430735,-0.337511,-0.01924184,-0.8571734667,-0.8055375,-2.477908467,0.0064747804,51.69883,0.1,0.5061253333,0.37610807,0.1476864567,0.08076967,1,1,1,1,2,0,2,1,3,1,1,1,benign
260302351,-0.32565996,0.0107607385,-0.0064524114,0.94540375,0.9999948,-4.61E-10,1.58E-09,0.0032373846,3,36.20481179,138.2529154,51.3085172,86.648964,0,2.71804452,3.9269896,51.2165904,2,0,1,0,0,362048115,1382529163,49142,86238,0.319200008,2.01738194,2.01500008,2.9846,0.84,1.3,102,42.4,0.0444000022,0.0176000018,-0.0246000008,0.100600007,0,0,0,3,1,11,36.2048055,138.2529121,0.6999921567,0.2998905267,0.3898826033,-0.015382085,0.016268428,0,0.01442937767,-0.01740600567,0.08207982667,0.02221810767,-0.031618506,-0.00430735,-0.337511,0.032798185,0.5836238667,-0.88040085,-2.477891633,0.0064747804,51.69883,0.1,0.5087147967,0.37655,0.1493148033,0.0809894,1,1,1,1,2,0,2,1,3,1,1,1,benign
260352343,-0.32569656,0.011219467,-0.0062729726,0.945387,0.9999948,-4.61E-10,1.58E-09,0.0032373846,3,36.2048118,138.2529154,51.3074658,86.646286,0,2.71804228,3.9269794,51.2152376,2,0,1,0,0,362048115,1382529163,49140,86236,0.3200800072,2.017382036,2.014400072,2.98404,0.84,1.3,102,41.96,0.04616000228,0.01984000192,-0.02684000092,0.0992400068,0,0,0,3,1,11,36.2048055,138.2529121,0.70101386,0.29855752,0.39071804,-0.015382085,0.016268428,0,0.013895035,-0.01639963,0.08701378,0.027020248,-0.031618506,-0.00430735,-0.337511,0.08483821,2.0244212,-0.9552642,-2.4778748,0.0064747804,51.69883,0.1,0.51130426,0.37699193,0.15094315,0.08120913,1,1,1,1,2,0,2,1,3,1,1,1,benign
260402334,-0.32568297,0.010866203,-0.0063489145,0.94539535,0.9999948,-4.61E-10,1.58E-09,0.0032373846,3,36.20481181,138.2529154,51.3064144,86.643608,0,2.71804004,3.9269692,51.2138848,2,0,1,0,0,362048115,1382529163,49138,86234,0.3209600064,2.017382132,2.013800064,2.98348,0.84,1.3,102,41.52,0.04792000236,0.02208000204,-0.02908000104,0.0978800066,0,0,0,3,1,11,36.2048055,138.2529121,0.7016837,0.2974422,0.39209205,-0.015382085,0.016268428,0,0.0179935535,-0.0139689685,0.08127717,0.0216065025,-0.031618506,-0.00430735,-0.337511,1.422163505,1.9499373,-1.63017805,-2.4779468,0.0064747804,51.69883,0.1,0.50738978,0.376062515,0.14870818,0.080874063,1,1,1,1,2,0,2,1,3,1,1,1,benign
260442327,-0.32571921,0.011000312,-0.00635433225,0.945381225,0.9999948,-4.61E-10,1.58E-09,0.0032373846,3,36.20481182,138.2529154,51.305363,86.64093,0,2.7180378,3.926959,51.212532,2,0,1,0,0,362048115,1382529163,49136,86232,0.3218400056,2.017382228,2.013200056,2.98292,0.84,1.3,102,41.08,0.04968000244,0.02432000216,-0.03132000116,0.0965200064,0,0,0,3,1,11,36.2048055,138.2529121,0.70235354,0.29632688,0.39346606,-0.015382085,0.016268428,0,0.022092072,-0.011538307,0.07554056,0.016192757,-0.031618506,-0.00430735,-0.337511,2.7594888,1.8754534,-2.3050919,-2.4780188,0.0064747804,51.69883,0.1,0.5034753,0.3751331,0.14647321,0.080538996,1,1,1,1,2,0,2,1,3,1,1,1,benign
260447326,-0.32575545,0.011134421,-0.00635975,0.9453671,0.9999948,-4.61E-10,1.58E-09,0.0032373846,3,36.20481182,138.2529154,51.3042338,86.638184,0,2.71804372,3.92695524,51.2118164,2,0,1,0,0,362048115,1382529163,49134,86230,0.3227200048,2.017382324,2.012600048,2.98236,0.84,1.3,102,40.64,0.05144000252,0.02656000228,-0.03356000128,0.0951600062,0,0,0,3,1,11,36.2048055,138.2529121,0.7027992267,0.29548262,0.39443034,-0.015382085,0.016268428,0,0.01808747033,-0.01611175467,0.07651115,0.01728933467,-0.031618506,-0.00430735,-0.337511,1.1071771,0.3652833667,-0.8647877667,-2.478029267,0.0064747804,51.69883,0.1,0.5060787133,0.3755736567,0.1481160433,0.08075809733,1,1,1,1,2,0,2,1,3,1,1,1,benign
260502317,-0.32575122,0.011339403,-0.006394262,0.9453659,0.9999948,-4.61E-10,1.58E-09,0.0032373846,3,36.20481182,138.2529154,51.3031046,86.635438,0,2.71804964,3.92695148,51.2111008,2,0,1,0,0,362048115,1382529163,49132,86228,0.323600004,2.01738242,2.01200004,2.9818,0.84,1.3,102,40.2,0.0532000026,0.0288000024,-0.0358000014,0.093800006,0,0,0,3,1,11,36.2048055,138.2529121,0.7032449133,0.29463836,0.39539462,-0.015382085,0.016268428,0,0.01408286867,-0.02068520233,0.07748174,0.01838591233,-0.031618506,-0.00430735,-0.337511,-0.5451346,-1.144886667,0.5755163667,-2.478039733,0.0064747804,51.69883,0.1,0.5086821267,0.3760142133,0.1497588767,0.08097719867,1,1,1,1,2,0,2,1,3,1,1,1,benign
260552351,-0.32560927,0.011416682,-0.006472764,0.94541335,0.9999948,-4.61E-10,1.58E-09,0.0032373846,3,36.20481182,138.2529154,51.3019754,86.632692,0,2.71805556,3.92694772,51.2103852,2,0,1,0,0,362048115,1382529162,49130,86226,0.3244800032,2.017382516,2.011400032,2.98124,0.84,1.3,102,39.76,0.05496000268,0.03104000252,-0.03804000152,0.0924400058,0,0,0,3,1,11,36.2048055,138.2529121,0.7036906,0.2937941,0.3963589,-0.015382085,0.016268428,0,0.010078267,-0.02525865,0.07845233,0.01948249,-0.031618506,-0.00430735,-0.337511,-2.1974463,-2.6550567,2.0158205,-2.4780502,0.0064747804,51.69883,0.1,0.51128554,0.37645477,0.15140171,0.0811963,1,1,1,1,2,0,2,1,3,1,1,1,benign
260597319,-0.32577094,0.011970835,-0.006354544,0.9453516,0.9999948,-4.61E-10,1.58E-09,0.0032373846,3,36.20481182,138.2529154,51.3008462,86.629946,0,2.71806148,3.92694396,51.2096696,2,0,1,0,0,362048115,1382529162,49128,86224,0.3253600024,2.017382612,2.010800024,2.98068,0.84,1.3,102,39.32,0.05672000276,0.03328000264,-0.04028000164,0.0910800056,0,0,0,3,1,11,36.2048055,138.2529121,0.7034373,0.29338025,0.397735175,-0.015382085,0.016268428,0,0.0131541365,-0.022591689,0.08344805,0.024445829,-0.031618506,-0.00430735,-0.337511,0.08527335,-2.15216505,0.28479525,-2.4781606,0.0064747804,51.69883,0.1,0.50746032,0.375695495,0.14993473,0.08086419,1,1,1,1,2,0,2,1,3,1,1,1,benign
260652291,-0.32548574,0.012369253,-0.007046479,0.9454399,0.9999948,-4.61E-10,1.58E-09,0.0032373846,3,36.20481182,138.2529154,51.299717,86.6272,0,2.7180674,3.9269402,51.208954,2,0,1,0,0,362048115,1382529162,49126,86222,0.3262400016,2.017382708,2.010200016,2.98012,0.84,1.3,102,38.88,0.05848000284,0.03552000276,-0.04252000176,0.0897200054,0,0,0,3,1,11,36.2048055,138.2529121,0.703184,0.2929664,0.39911145,-0.015382085,0.016268428,0,0.016230006,-0.019924728,0.08844377,0.029409168,-0.031618506,-0.00430735,-0.337511,2.367993,-1.6492734,-1.44623,-2.478271,0.0064747804,51.69883,0.1,0.5036351,0.37493622,0.14846775,0.08053208,1,1,1,1,2,0,2,1,3,1,1,1,benign
260702281,-0.32554355,0.012659051,-0.007590033,0.9454119,0.9999948,-4.61E-10,1.58E-09,0.0032373846,3,36.20481183,138.2529154,51.298848,86.6247032,0,2.71807556,3.926932,51.2077232,2,0,1,0,0,362048115,1382529162,49124,86220,0.3271200008,2.017382804,2.009600008,2.97956,0.84,1.3,102,38.44,0.06024000292,0.03776000288,-0.04476000188,0.0883600052,0,0,0,3,1,11,36.2048055,138.2529121,0.7029954667,0.2928474467,0.3999199333,-0.015382085,0.016268428,0,0.01586800833,-0.0128819392,0.0824608,0.023468773,-0.031618506,-0.00430735,-0.337511,2.0784044,-0.4068216667,-1.377834667,-2.4780492,0.0064747804,51.69883,0.1,0.5060081667,0.3752040533,0.1521329233,0.08072066333,1,1,1,1,2,0,2,1,3,1,1,1,benign
260725131,-0.325660705,0.0129237645,-0.007873094,0.94536555,0.9999948,-4.61E-10,1.58E-09,0.0032373846,3,36.20481183,138.2529154,51.297979,86.6222064,0,2.71808372,3.9269238,51.2064924,2,0,1,0,0,362048115,1382529162,49122,86218,0.328,2.0173829,2.009,2.979,0.84,1.3,102,38,0.062000003,0.040000003,-0.047000002,0.087000005,0,0,0,3,1,11,36.2048055,138.2529121,0.7028069333,0.2927284933,0.4007284167,-0.015382085,0.016268428,0,0.01550601067,-0.0058391504,0.07647783,0.017528378,-0.031618506,-0.00430735,-0.337511,1.7888158,0.8356300667,-1.309439333,-2.4778274,0.0064747804,51.69883,0.1,0.5083812333,0.3754718867,0.1557980967,0.08090924667,1,1,1,1,2,0,2,1,3,1,1,1,benign
260752273,-0.32577786,0.013188478,-0.008156155,0.9453192,0.9999948,-4.61E-10,1.58E-09,0.0032373846,3,36.20481183,138.2529154,51.29711,86.6197096,0,2.71809188,3.9269156,51.2052616,2,0,1,0,0,362048114.7,1382529162,49125.66667,86221.66667,0.33225,2.017383008,2.008541671,2.978625,0.84,1.3,102,37.875,0.07033333704,0.02858333579,-0.04016666833,0.08033333771,0,0,0,3,1,11,36.2048055,138.2529121,0.7026184,0.29260954,0.4015369,-0.015382085,0.016268428,0,0.015144013,0.0012036384,0.07049486,0.011587983,-0.031618506,-0.00430735,-0.337511,1.4992272,2.0780818,-1.241044,-2.4776056,0.0064747804,51.69883,0.1,0.5107543,0.37573972,0.15946327,0.08109783,1,1,1,1,2,0,2,1,3,1,1,1,benign
260797265,-0.32596606,0.013781264,-0.009582651,0.94523245,0.9999948,-4.61E-10,1.58E-09,0.0032373846,3,36.20481183,138.2529154,51.296241,86.6172128,0,2.71810004,3.9269074,51.2040308,2,0,1,0,0,362048114.4,1382529162,49129.33333,86225.33333,0.3365,2.017383117,2.008083342,2.97825,0.84,1.3,102,37.75,0.07866667108,0.01716666858,-0.03333333467,0.07366667042,0,0,0,3,1,11,36.2048055,138.2529121,0.703306575,0.292018355,0.40249669,-0.015382085,0.016268428,0,0.00268095,-0.00021613035,0.069464375,0.010610127,-0.031618506,-0.00430735,-0.337511,-0.7418528,1.74238225,-1.1642274,-2.4764017,0.0064747804,51.69883,0.1,0.507304615,0.37512262,0.161909475,0.080840828,1,1,1,1,2,0,2,1,3,1,1,1,benign
260852255,-0.32683837,0.015606586,-0.0115577765,0.94488066,0.9999948,-4.61E-10,1.58E-09,0.0032373846,3,36.20481183,138.2529153,51.295372,86.614716,0,2.7181082,3.9268992,51.2028,2,0,1,0,0,362048114.1,1382529163,49133,86229,0.34075,2.017383225,2.007625013,2.977875,0.84,1.3,102,37.625,0.08700000513,0.005750001375,-0.026500001,0.06700000313,0,0,0,3,1,11,36.2048055,138.2529121,0.70399475,0.29142717,0.40345648,-0.015382085,0.016268428,0,-0.009782113,-0.0016358991,0.06843389,0.009632271,-0.031618506,-0.00430735,-0.337511,-2.9829328,1.4066827,-1.0874108,-2.4751978,0.0064747804,51.69883,0.1,0.50385493,0.37450552,0.16435568,0.080583826,1,1,1,1,2,0,2,1,3,1,1,1,benign
260902248,-0.32801312,0.018289082,-0.014458377,0.9443854,0.9999948,-4.61E-10,1.58E-09,0.0032373846,3,36.20481182,138.2529153,51.2957296,86.6134678,0,2.71813442,3.92693556,51.2027666,2,0,1,0,0,362048113.8,1382529163,49136.66667,86232.66667,0.345,2.017383333,2.007166683,2.9775,0.84,1.3,102,37.5,0.09533333917,-0.005666665833,-0.01966666733,0.06033333583,0,0,0,3,1,11,36.2048055,138.2529121,0.70386371,0.29106331,0.40357262,-0.015382085,0.016268428,0,-0.0141431705,0.0026414328,0.060994035,0.00188732415,-0.031618506,-0.00430735,-0.337511,-0.4225273,1.73796105,-2.0001982,-2.4721786,0.0064747804,51.69883,0.1,0.507104465,0.37573543,0.172325835,0.0809177905,1,1,1,1,2,0,2,1,3,1,1,1,benign
260942239,-0.32878503,0.0197580805,-0.01512897,0.944075135,0.9999948,-4.61E-10,1.58E-09,0.0032373846,3,36.20481182,138.2529153,51.2960872,86.6122196,0,2.71816064,3.92697192,51.2027332,2,0,1,0,0,362048113.5,1382529163,49140.33333,86236.33333,0.34925,2.017383442,2.006708354,2.977125,0.84,1.3,102,37.375,0.1036666732,-0.01708333304,-0.01283333367,0.05366666854,0,0,0,3,1,11,36.2048055,138.2529121,0.70373267,0.29069945,0.40368876,-0.015382085,0.016268428,0,-0.018504228,0.0069187647,0.05355418,-0.0058576227,-0.031618506,-0.00430735,-0.337511,2.1378782,2.0692394,-2.9129856,-2.4691594,0.0064747804,51.69883,0.1,0.510354,0.37696534,0.18029599,0.081251755,1,1,1,1,2,0,2,1,3,1,1,1,benign
260947239,-0.32955694,0.021227079,-0.015799563,0.94376487,0.9999948,-4.61E-10,1.58E-09,0.0032373846,3,36.20481181,138.2529153,51.2964448,86.6109714,0,2.71818686,3.92700828,51.2026998,2,0,1,0,0,362048113.3,1382529163,49144,86240,0.3535,2.01738355,2.006250025,2.97675,0.84,1.3,102,37.25,0.1120000072,-0.02850000025,-0.006,0.04700000125,0,0,0,3,1,11,36.2048055,138.2529121,0.70241498,0.2910216833,0.4030153567,-0.015382085,0.016268428,0,-0.03991514667,0.01651811647,0.037741003,-0.02193472847,-0.031618506,-0.00430735,-0.337511,1.046196967,3.059099367,-2.704344733,-2.464319167,0.0064747804,51.69883,0.1,0.5084233667,0.37677988,0.1830348533,0.08114345833,1,1,1,1,2,0,2,1,3,1,1,1,benign
261002231,-0.3326631,0.025982033,-0.017919764,0.94251746,0.9999948,-4.61E-10,1.58E-09,0.0032373846,3,36.2048118,138.2529154,51.2968024,86.6097232,0,2.71821308,3.92704464,51.2026664,2,0,1,0,0,362048113,1382529163,49147.66667,86243.66667,0.35775,2.017383658,2.005791696,2.976375,0.84,1.3,102,37.125,0.1203333413,-0.03991666746,0.0008333336667,0.04033333396,0,0,0,3,1,11,36.2048055,138.2529121,0.70109729,0.2913439167,0.4023419533,-0.015382085,0.016268428,0,-0.06132606533,0.02611746823,0.021927826,-0.03801183423,-0.031618506,-0.00430735,-0.337511,-0.04548426667,4.048959333,-2.495703867,-2.459478933,0.0064747804,51.69883,0.1,0.5064927333,0.37659442,0.1857737167,0.08103516167,1,1,1,1,2,0,2,1,3,1,1,1,benign
261052220,-0.33610004,0.0267809,-0.019295543,0.9412477,0.9999948,-4.61E-10,1.58E-09,0.0032373846,3,36.20481179,138.2529154,51.29716,86.608475,0,2.7182393,3.927081,51.202633,2,0,1,0,0,362048112.7,1382529163,49151.33333,86247.33333,0.362,2.017383767,2.005333367,2.976,0.84,1.3,102,37,0.1286666753,-0.05133333467,0.007666667333,0.03366666667,0,0,0,3,1,11,36.2048055,138.2529121,0.6997796,0.29166615,0.40166855,-0.015382085,0.016268428,0,-0.082736984,0.03571682,0.006114649,-0.05408894,-0.031618506,-0.00430735,-0.337511,-1.1371655,5.0388193,-2.287063,-2.4546387,0.0064747804,51.69883,0.1,0.5045621,0.37640896,0.18851258,0.080926865,1,1,1,1,2,0,2,1,3,1,1,1,benign
261102215,-0.34000957,0.027892046,-0.018391853,0.9398284,0.9999948,-4.61E-10,1.58E-09,0.0032373846,3,36.20481176,138.2529154,51.304736,86.614408,0,2.71825994,3.92707492,51.20244,2,0,1,0,0,362048112.4,1382529164,49155,86251,0.36625,2.017383875,2.004875037,2.975625,0.84,1.3,102,36.875,0.1370000094,-0.06275000187,0.014500001,0.02699999938,0,0,0,3,1,11,36.2048055,138.2529121,0.6958612,0.292295815,0.396551575,-0.015382085,0.016268428,0,-0.106689537,0.024980278,-0.0605347505,-0.12089637,-0.031618506,-0.00430735,-0.337511,-2.21547985,1.27050195,-2.6247539,-2.44708345,0.0064747804,51.69883,0.102864075,0.507935025,0.37656067,0.19791297,0.0811751975,1,1,1,1,2,0,2,1,3,1,1,1,benign
261142204,-0.341819335,0.026549738,-0.017753048,0.93921975,0.9999948,-4.61E-10,1.58E-09,0.0032373846,3,36.20481172,138.2529154,51.312312,86.620341,0,2.71828058,3.92706884,51.202247,2,0,1,0,0,362048112.1,1382529164,49158.66667,86254.66667,0.3705,2.017383983,2.004416708,2.97525,0.84,1.3,102,36.75,0.1453333434,-0.07416666908,0.02133333467,0.02033333208,0,0,0,3,1,11,36.2048055,138.2529121,0.6919428,0.29292548,0.3914346,-0.015382085,0.016268428,0,-0.13064209,0.014243736,-0.12718415,-0.1877038,-0.031618506,-0.00430735,-0.337511,-3.2937942,-2.4978154,-2.9624448,-2.4395282,0.0064747804,51.69883,0.10572815,0.51130795,0.37671238,0.20731336,0.08142353,1,1,1,1,2,0,2,1,3,1,1,1,benign
261147203,-0.3436291,0.02520743,-0.017114243,0.9386111,0.9999948,-4.61E-10,1.58E-09,0.0032373846,3,36.20481168,138.2529154,51.319888,86.626274,0,2.71830122,3.92706276,51.202054,2,0,1,0,0,362048111.8,1382529164,49162.33333,86258.33333,0.37475,2.017384092,2.003958379,2.974875,0.84,1.3,102,36.625,0.1536666775,-0.08558333629,0.02816666833,0.01366666479,0,0,0,3,1,11,36.2048055,138.2529121,0.6877304833,0.2934699467,0.3822190333,-0.015382085,0.016268428,0,-0.14928056,0.02459354533,-0.1653892433,-0.2259525933,-0.031618506,-0.00430735,-0.337511,-4.187600967,1.6178534,-1.650027533,-2.433646667,0.0064747804,51.69883,0.1149437233,0.5092446,0.3765048967,0.2086236333,0.08131608467,1,1,1,1,2,0,2,1,3,1,1,1,benign
261202194,-0.34804824,0.022485582,-0.015324471,0.9370817,0.9999948,-4.61E-10,1.58E-09,0.0032373846,3,36.20481165,138.2529154,51.327464,86.632207,0,2.71832186,3.92705668,51.201861,2,0,1,0,0,362048111.5,1382529164,49166,86262,0.379,2.0173842,2.00350005,2.9745,0.84,1.3,102,36.5,0.1620000115,-0.0970000035,0.035000002,0.0069999975,0,0,0,3,1,11,36.2048055,138.2529121,0.6835181667,0.2940144133,0.3730034667,-0.015382085,0.016268428,0,-0.16791903,0.03494335467,-0.2035943367,-0.2642013867,-0.031618506,-0.00430735,-0.337511,-5.081407733,5.7335222,-0.3376102667,-2.427765133,0.0064747804,51.69883,0.1241592967,0.50718125,0.3762974133,0.2099339067,0.08120863933,1,1,1,1,2,0,2,1,3,1,1,1,benign
261252193,-0.3517252,0.020904938,-0.015953178,0.9357339,0.9999948,-4.61E-10,1.58E-09,0.0032373846,3,36.20481161,138.2529154,51.33504,86.63814,0,2.7183425,3.9270506,51.201668,2,0,1,0,0,362048111.2,1382529164,49169.66667,86265.66667,0.38325,2.017384308,2.003041721,2.974125,0.84,1.3,102,36.375,0.1703333455,-0.1084166707,0.04183333567,0.0003333302083,0,0,0,3,1,11,36.2048055,138.2529121,0.67930585,0.29455888,0.3637879,-0.015382085,0.016268428,0,-0.1865575,0.045293164,-0.24179943,-0.30245018,-0.031618506,-0.00430735,-0.337511,-5.9752145,9.849191,0.974807,-2.4218836,0.0064747804,51.69883,0.13337487,0.5051179,0.37608993,0.21124418,0.081101194,1,1,1,1,2,0,2,1,3,1,1,1,benign
261297177,-0.3549287,0.019646728,-0.014534742,0.9345739,0.9999948,-4.61E-10,1.58E-09,0.0032373846,3,36.20481155,138.2529154,51.35109925,86.6520175,0,2.718328675,3.927037,51.201668,2,0,1,0,0,362048110.9,1382529164,49173.33333,86269.33333,0.3875,2.017384417,2.002583392,2.97375,0.84,1.3,102,36.25,0.1786666796,-0.1198333379,0.04866666933,-0.006333337083,0,0,0,3,1,11,36.2048055,138.2529121,0.67176491,0.29530163,0.3465266,-0.015382085,0.016268428,0,-0.18937185,0.037139397,-0.261560955,-0.3226372,-0.031618506,-0.00430735,-0.337511,-0.5871425,4.22963425,1.9650459,-2.41516175,0.0064747804,51.69883,0.150636165,0.50904985,0.376501715,0.222232215,0.081421162,1,1,1,1,2,0,2,1,3,1,1,1,benign
261352167,-0.3581785,0.016365169,-0.0112881055,0.93344146,0.9999948,-4.61E-10,1.58E-09,0.0032373846,3,36.20481149,138.2529154,51.3671585,86.665895,0,2.71831485,3.9270234,51.201668,2,0,1,0,0,362048110.6,1382529165,49177,86273,0.39175,2.017384525,2.002125063,2.973375,0.84,1.3,102,36.125,0.1870000136,-0.1312500051,0.055500003,-0.01300000437,0,0,0,3,1,11,36.2048055,138.2529121,0.66422397,0.29604438,0.3292653,-0.015382085,0.016268428,0,-0.1921862,0.02898563,-0.28132248,-0.34282422,-0.031618506,-0.00430735,-0.337511,4.8009295,-1.3899225,2.9552848,-2.4084399,0.0064747804,51.69883,0.16789746,0.5129818,0.3769135,0.23322025,0.08174113,1,1,1,1,2,0,2,1,3,1,1,1,benign
261402159,-0.36108646,0.012151347,-0.011093026,0.93238723,0.9999948,-4.61E-10,1.58E-09,0.0032373846,3,36.20481144,138.2529154,51.38321775,86.6797725,0,2.718301025,3.9270098,51.201668,2,0,1,0,0,362048110.3,1382529165,49180.66667,86276.66667,0.396,2.017384633,2.001666733,2.973,0.84,1.3,102,36,0.1953333477,-0.1426666723,0.06233333667,-0.01966667167,0,0,0,3,1,11,36.2048055,138.2529121,0.658963355,0.29541179,0.3144087,-0.015382085,0.016268428,0,-0.19037797,0.0186060085,-0.29117094,-0.349961785,-0.031618506,-0.00430735,-0.337511,5.67968845,-2.05647625,-1.1582693,-2.40314985,0.0064747804,51.69883,0.182754055,0.50890095,0.37621775,0.229141215,0.081447685,1,1,1,1,2,0,2,1,3,1,1,1,benign
261452150,-0.3632766,0.008395177,-0.009717812,0.9315929,0.9999948,-4.61E-10,1.58E-09,0.0032373846,3,36.20481138,138.2529154,51.399277,86.69365,0,2.7182872,3.9269962,51.201668,2,0,1,0,0,362048110,1382529165,49184.33333,86280.33333,0.40025,2.017384742,2.001208404,2.972625,0.84,1.3,102,35.875,0.2036666817,-0.1540833395,0.06916667033,-0.02633333896,0,0,0,3,1,11,36.2048055,138.2529121,0.65370274,0.2947792,0.2995521,-0.015382085,0.016268428,0,-0.18856974,0.008226387,-0.3010194,-0.35709935,-0.031618506,-0.00430735,-0.337511,6.5584474,-2.72303,-5.2718234,-2.3978598,0.0064747804,51.69883,0.19761065,0.5048201,0.375522,0.22506218,0.08115424,1,1,1,1,2,0,2,1,3,1,1,1,benign
261497144,-0.36508024,0.0063946587,-0.008507946,0.93091524,0.9999948,-4.61E-10,1.58E-09,0.0032373846,3,36.20481135,138.2529154,51.414139,86.706345,0,2.7182608,3.927025225,51.201668,2,0,1,0,0,362048109.8,1382529165,49188,86284,0.4045,2.01738485,2.000750075,2.97225,0.84,1.3,102,35.75,0.2120000158,-0.1655000067,0.076000004,-0.03300000625,0,0,0,3,1,11,36.2048055,138.2529121,0.649013255,0.29372404,0.283726835,-0.015382085,0.016268428,0,-0.191626765,0.009698104,-0.315749275,-0.36962074,-0.031618506,-0.00430735,-0.337511,3.807718,-1.32519761,-3.8762003,-2.3936084,0.0064747804,51.69883,0.21343592,0.5088021,0.375931465,0.235419765,0.0814583475,1,1,1,1,2,0,2,1,3,1,1,1,benign
261552134,-0.36727595,0.0052835657,-0.009975513,0.9300436,0.9999948,-4.61E-10,1.58E-09,0.0032373846,3,36.20481132,138.2529153,51.429001,86.71904,0,2.7182344,3.92705425,51.201668,2,0,1,0,0,362048109.5,1382529165,49191.66667,86287.66667,0.40875,2.017384958,2.000291746,2.971875,0.84,1.3,102,35.625,0.2203333498,-0.176916674,0.08283333767,-0.03966667354,0,0,0,3,1,11,36.2048055,138.2529121,0.64432377,0.29266888,0.26790157,-0.015382085,0.016268428,0,-0.19468379,0.011169821,-0.33047915,-0.38214213,-0.031618506,-0.00430735,-0.337511,1.0569886,0.07263478,-2.4805772,-2.389357,0.0064747804,51.69883,0.22926119,0.5127841,0.37634093,0.24577735,0.081762455,1,1,1,1,2,0,2,1,3,1,1,1,benign
261602124,-0.3687598,0.0022401027,-0.0070300745,0.92949545,0.9999948,-4.61E-10,1.58E-09,0.0032373846,3,36.20481128,138.2529153,51.443863,86.731735,0,2.718208,3.927083275,51.201668,2,0,1,0,0,362048109.2,1382529165,49195.33333,86291.33333,0.413,2.017385067,1.999833417,2.9715,0.84,1.3,102,35.5,0.2286666838,-0.1883333412,0.08966667133,-0.04633334083,0,0,0,3,1,11,36.2048055,138.2529121,0.641988785,0.29048544,0.25400277,-0.015382085,0.016268428,0,-0.194790995,0.012694891,-0.34727474,-0.395261335,-0.031618506,-0.00430735,-0.337511,-2.09918505,1.50068889,-2.0218477,-2.3867788,0.0064747804,51.69883,0.243159995,0.50851758,0.376537685,0.239142305,0.0815252695,1,1,1,1,2,0,2,1,3,1,1,1,benign
261642118,-0.36914615,0.001192875165,-0.0067726425,0.929345175,0.9999948,-4.61E-10,1.58E-09,0.0032373846,3,36.20481125,138.2529153,51.458725,86.74443,0,2.7181816,3.9271123,51.201668,2,0,1,0,0,362048108.9,1382529166,49199,86295,0.41725,2.017385175,1.999375088,2.971125,0.84,1.3,102,35.375,0.2370000179,-0.1997500084,0.096500005,-0.05300000812,0,0,0,3,1,11,36.2048055,138.2529121,0.6396538,0.288302,0.24010397,-0.015382085,0.016268428,0,-0.1948982,0.014219961,-0.36407033,-0.40838054,-0.031618506,-0.00430735,-0.337511,-5.2553587,2.928743,-1.5631182,-2.3842006,0.0064747804,51.69883,0.2570588,0.50425106,0.37673444,0.23250726,0.081288084,1,1,1,1,2,0,2,1,3,1,1,1,benign
261647115,-0.3695325,0.00014564763,-0.0065152105,0.9291949,0.9999948,-4.61E-10,1.58E-09,0.0032373846,3,36.20481124,138.2529153,51.4710235,86.75513167,0,2.718282417,3.9271185,51.201668,2,0,1,0,0,362048108.6,1382529166,49202.66667,86298.66667,0.4215,2.017385283,1.998916758,2.97075,0.84,1.3,102,35.25,0.2453333519,-0.2111666756,0.1033333387,-0.05966667542,0,0,0,3,1,11,36.2048055,138.2529121,0.638509725,0.286728075,0.2303897925,-0.015382085,0.016268428,0,-0.18948935,0.0159874215,-0.3744222225,-0.416829975,-0.031618506,-0.00430735,-0.337511,-5.7018056,4.57942,-0.87024435,-2.3832123,0.0064747804,51.69883,0.26677297,0.5064814075,0.3770681725,0.23782672,0.0814555705,1,1,1,1,2,0,2,1,3,1,1,1,benign
261702107,-0.37072855,-0.00093386084,-0.0043981043,0.9287304,0.9999948,-4.61E-10,1.58E-09,0.0032373846,3,36.20481122,138.2529153,51.483322,86.76583333,0,2.718383233,3.9271247,51.201668,2,0,1,0,0,362048108.3,1382529166,49206.33333,86302.33333,0.42575,2.017385392,1.998458429,2.970375,0.84,1.3,102,35.125,0.253666686,-0.2225833428,0.1101666723,-0.06633334271,0,0,0,3,1,11,36.2048055,138.2529121,0.63736565,0.28515415,0.220675615,-0.015382085,0.016268428,0,-0.1840805,0.017754882,-0.384774115,-0.42527941,-0.031618506,-0.00430735,-0.337511,-6.1482525,6.230097,-0.1773705,-2.382224,0.0064747804,51.69883,0.27648714,0.508711755,0.377401905,0.24314618,0.081623057,1,1,1,1,2,0,2,1,3,1,1,1,benign
261729117,-0.371139625,-0.00110586972,-0.00441133015,0.928565875,0.9999948,-4.61E-10,1.58E-09,0.0032373846,3,36.2048112,138.2529153,51.4956205,86.776535,0,2.71848405,3.9271309,51.201668,2,0,1,0,0,362048108,1382529166,49210,86306,0.43,2.0173855,1.9980001,2.97,0.84,1.3,102,35,0.26200002,-0.23400001,0.117000006,-0.07300001,0,0,0,3,1,11,36.2048055,138.2529121,0.636221575,0.283580225,0.2109614375,-0.015382085,0.016268428,0,-0.17867165,0.0195223425,-0.3951260075,-0.433728845,-0.031618506,-0.00430735,-0.337511,-6.5946994,7.880774,0.51550335,-2.3812357,0.0064747804,51.69883,0.28620131,0.5109421025,0.3777356375,0.24846564,0.0817905435,1,1,1,1,2,0,2,1,3,1,1,1,benign
261752099,-0.3715507,-0.0012778786,-0.004424556,0.92840135,0.9999948,-4.61E-10,1.58E-09,0.0032373846,3,36.20481119,138.2529153,51.507919,86.78723667,0,2.718584867,3.9271371,51.201668,2,0,1,0,0,362048107.9,1382529166,49209.91304,86305.95652,0.4282608704,2.017385622,1.998260974,2.970652178,0.84,1.3,102,34.60869565,0.2510000192,-0.2235217487,0.1117391362,-0.06543479217,0,0,0,3,1,11,36.2048055,138.2529121,0.6350775,0.2820063,0.20124726,-0.015382085,0.016268428,0,-0.1732628,0.021289803,-0.4054779,-0.44217828,-0.031618506,-0.00430735,-0.337511,-7.0411463,9.531451,1.2083772,-2.3802474,0.0064747804,51.69883,0.29591548,0.51317245,0.37806937,0.2537851,0.08195803,1,1,1,1,2,0,2,1,3,1,1,1,benign
261802096,-0.37201858,-0.0009923761,-0.003424004,0.9282185,0.9999948,-4.61E-10,1.58E-09,0.0032373846,3,36.20481117,138.2529152,51.5202175,86.79793833,0,2.718685683,3.9271433,51.201668,2,0,1,0,0,362048107.8,1382529166,49209.82609,86305.91304,0.4265217409,2.017385743,1.998521848,2.971304357,0.84,1.3,102,34.2173913,0.2400000183,-0.2130434874,0.1064782663,-0.05786957435,0,0,0,3,1,11,36.2048055,138.2529121,0.63176383,0.28169235,0.183781115,-0.015382085,0.016268428,0,-0.150027825,-0.0019543515,-0.42034055,-0.45405878,-0.031618506,-0.00430735,-0.337511,-1.14984515,-0.135508,0.309777775,-2.3796053,0.0064747804,51.69883,0.31338164,0.510336905,0.377595945,0.251427215,0.081842455,1,1,1,1,2,0,2,1,3,1,1,1,benign
261842085,-0.37202174,-0.00229434495,-0.0026055856,0.9282163,0.9999948,-4.61E-10,1.58E-09,0.0032373846,3,36.20481115,138.2529152,51.532516,86.80864,0,2.7187865,3.9271495,51.201668,2,0,1,0,0,362048107.7,1382529167,49209.73913,86305.86957,0.4247826113,2.017385865,1.998782722,2.971956535,0.84,1.3,102,33.82608696,0.2290000175,-0.2025652261,0.1012173965,-0.05030435652,0,0,0,3,1,11,36.2048055,138.2529121,0.62845016,0.2813784,0.16631497,-0.015382085,0.016268428,0,-0.12679285,-0.025198506,-0.4352032,-0.46593928,-0.031618506,-0.00430735,-0.337511,4.741456,-9.802467,-0.58882165,-2.3789632,0.0064747804,51.69883,0.3308478,0.50750136,0.37712252,0.24906933,0.08172688,1,1,1,1,2,0,2,1,3,1,1,1,benign
261847083,-0.3720249,-0.0035963138,-0.0017871672,0.9282141,0.9999948,-4.61E-10,1.58E-09,0.0032373846,3,36.20481113,138.2529152,51.5514636,86.82544,0,2.71895796,3.9271664,51.201668,2,0,1,0,0,362048107.7,1382529167,49209.65217,86305.82609,0.4230434817,2.017385987,1.999043596,2.972608713,0.84,1.3,102,33.43478261,0.2180000167,-0.1920869648,0.0959565267,-0.0427391387,0,0,0,3,1,11,36.2048055,138.2529121,0.62501262,0.2822161333,0.15003829,-0.015382085,0.016268428,0,-0.1269015933,-0.01477315633,-0.4441243233,-0.4736638133,-0.031618506,-0.00430735,-0.337511,2.515753733,-5.743962333,-0.2810145533,-2.378998167,0.0064747804,51.69883,0.3471244767,0.5108581567,0.37756884,0.2558774933,0.08193916333,1,1,1,1,2,0,2,1,3,1,1,1,benign
261902071,-0.37224084,-0.0027081557,-0.0049224007,0.9281192,0.9999948,-4.61E-10,1.58E-09,0.0032373846,3,36.20481111,138.2529153,51.5704112,86.84224,0,2.71912942,3.9271833,51.201668,2,0,1,0,0,362048107.6,1382529167,49209.56522,86305.78261,0.4213043522,2.017386109,1.99930447,2.973260891,0.84,1.3,102,33.04347826,0.2070000159,-0.1816087035,0.09069565687,-0.03517392087,0,0,0,3,1,11,36.2048055,138.2529121,0.62157508,0.2830538667,0.13376161,-0.015382085,0.016268428,0,-0.1270103367,-0.004347806667,-0.4530454467,-0.4813883467,-0.031618506,-0.00430735,-0.337511,0.2900514667,-1.685457667,0.02679254333,-2.379033133,0.0064747804,51.69883,0.3634011533,0.5142149533,0.37801516,0.2626856567,0.08215144667,1,1,1,1,2,0,2,1,3,1,1,1,benign
261952064,-0.3721006,-0.0029261382,-0.004797272,0.92817545,0.9999948,-4.61E-10,1.58E-09,0.0032373846,3,36.20481108,138.2529153,51.5893588,86.85904,0,2.71930088,3.9272002,51.201668,2,0,1,0,0,362048107.5,1382529167,49209.47826,86305.73913,0.4195652226,2.01738623,1.999565343,2.97391307,0.84,1.3,102,32.65217391,0.196000015,-0.1711304422,0.08543478704,-0.02760870304,0,0,0,3,1,11,36.2048055,138.2529121,0.61813754,0.2838916,0.11748493,-0.015382085,0.016268428,0,-0.12711908,0.006077543,-0.46196657,-0.48911288,-0.031618506,-0.00430735,-0.337511,-1.9356508,2.373047,0.33459964,-2.3790681,0.0064747804,51.69883,0.37967783,0.51757175,0.37846148,0.26949382,0.08236373,1,1,1,1,2,0,2,1,3,1,1,1,benign
261997057,-0.37255096,-0.0025827698,-0.005416816,0.9279924,0.9999948,-4.61E-10,1.58E-09,0.0032373846,3,36.20481106,138.2529153,51.6083064,86.87584,0,2.71947234,3.9272171,51.201668,2,0,1,0,0,362048107.4,1382529167,49209.3913,86305.69565,0.417826093,2.017386352,1.999826217,2.974565248,0.84,1.3,102,32.26086957,0.1850000142,-0.1606521809,0.08017391722,-0.02004348522,0,0,0,3,1,11,36.2048055,138.2529121,0.61703782,0.28543756,0.09452952,-0.015382085,0.016268428,0,-0.100507235,-0.0019737755,-0.484385785,-0.50908499,-0.031618506,-0.00430735,-0.337511,0.82251025,1.40481645,0.124440305,-2.3745962,0.0064747804,51.69883,0.40263325,0.51482326,0.378230855,0.265519935,0.08227527,1,1,1,1,2,0,2,1,3,1,1,1,benign
262052046,-0.37623778,-0.0017475833,0.00011967185,0.92652154,0.9999948,-4.61E-10,1.58E-09,0.0032373846,3,36.20481104,138.2529153,51.627254,86.89264,0,2.7196438,3.927234,51.201668,2,0,1,0,0,362048107.3,1382529167,49209.30435,86305.65217,0.4160869635,2.017386474,2.000087091,2.975217426,0.84,1.3,102,31.86956522,0.1740000134,-0.1501739196,0.07491304739,-0.01247826739,0,0,0,3,1,11,36.2048055,138.2529121,0.6159381,0.28698352,0.07157411,-0.015382085,0.016268428,0,-0.07389539,-0.010025094,-0.506805,-0.5290571,-0.031618506,-0.00430735,-0.337511,3.5806713,0.4365859,-0.08571903,-2.3701243,0.0064747804,51.69883,0.42558867,0.51207477,0.37800023,0.26154605,0.08218681,1,1,1,1,2,0,2,1,3,1,1,1,benign
262102036,-0.3795304,-0.0070912996,0.009158916,0.92510676,0.9999948,-4.61E-10,1.58E-09,0.0032373846,3,36.20481107,138.2529153,51.650508,86.91285,0,2.719888675,3.92730105,51.201668,2,0,1,0,0,362048107.2,1382529168,49209.21739,86305.6087,0.4143478339,2.017386596,2.000347965,2.975869604,0.84,1.3,102,31.47826087,0.1630000126,-0.1396956583,0.06965217757,-0.004913049565,0,0,0,3,1,11,36.2048055,138.2529121,0.617725625,0.288126635,0.046267332,-0.015382085,0.016268428,0,-0.03659187365,-0.00345258,-0.5105209,-0.5314997,-0.031618506,-0.00430735,-0.337511,5.52241565,0.54811295,-0.1628161,-2.36292575,0.0064747804,51.69883,0.450895435,0.517171685,0.378416195,0.27027835,0.0824493575,1,1,1,1,2,0,2,1,3,1,1,1,benign
262152034,-0.3825628,-0.019641342,0.012217501,0.9236399,0.9999948,-4.61E-10,1.58E-09,0.0032373846,3,36.20481109,138.2529153,51.673762,86.93306,0,2.72013355,3.9273681,51.201668,2,0,1,0,0,362048107.1,1382529168,49209.13043,86305.56522,0.4126087043,2.017386717,2.000608839,2.976521783,0.84,1.3,102,31.08695652,0.1520000117,-0.129217397,0.06439130774,0.002652168261,0,0,0,3,1,11,36.2048055,138.2529121,0.61951315,0.28926975,0.020960554,-0.015382085,0.016268428,0,0.0007116427,0.003119934,-0.5142368,-0.5339423,-0.031618506,-0.00430735,-0.337511,7.46416,0.65964,-0.23991317,-2.3557272,0.0064747804,51.69883,0.4762022,0.5222686,0.37883216,0.27901065,0.082711905,1,1,1,1,2,0,2,1,3,1,1,1,benign
262197019,-0.38512325,-0.03560108,0.0100327805,0.9221237,0.9999948,-4.61E-10,1.58E-09,0.0032373846,3,36.20481112,138.2529154,51.697016,86.95327,0,2.720378425,3.92743515,51.201668,2,0,1,0,0,362048107,1382529168,49209.04348,86305.52174,0.4108695748,2.017386839,2.000869713,2.977173961,0.84,1.3,102,30.69565217,0.1410000109,-0.1187391357,0.05913043791,0.01021738609,0,0,0,3,1,11,36.2048055,138.2529121,0.6236456,0.29243885,-0.00023884,-0.015382085,0.016268428,0,0.04090008635,0.006172791,-0.46600985,-0.482823275,-0.031618506,-0.00430735,-0.337511,5.19858565,-0.0789808,0.204190065,-2.34932745,0.0064747804,51.69883,0.4974016,0.51975963,0.37980494,0.2751237,0.0827673725,1,1,1,1,2,0,2,1,3,1,1,1,benign
262252011,-0.38678488,-0.056336556,0.010070802,0.92039245,0.9999948,-4.61E-10,1.58E-09,0.0032373846,3,36.20481115,138.2529154,51.72027,86.97348,0,2.7206233,3.9275022,51.201668,2,0,1,0,0,362048107,1382529168,49208.95652,86305.47826,0.4091304452,2.017386961,2.001130587,2.977826139,0.84,1.3,102,30.30434783,0.1300000101,-0.1082608743,0.05386956809,0.01778260391,0,0,0,3,1,11,36.2048055,138.2529121,0.62777805,0.29560795,-0.021438234,-0.015382085,0.016268428,0,0.08108853,0.009225648,-0.4177829,-0.43170425,-0.031618506,-0.00430735,-0.337511,2.9330113,-0.8176016,0.6482933,-2.3429277,0.0064747804,51.69883,0.518601,0.51725066,0.38077772,0.27123675,0.08282284,1,1,1,1,2,0,2,1,3,1,1,1,benign
