timestamp,control[0],control[1],control[2],control[3],control[4],control[5],control[6],control[7],lat,lon,alt,alt_ellipsoid,eph,epv,hdop,vdop,noise_per_ms,jamming_indicator,vel_m_s,vel_n_m_s,vel_e_m_s,vel_d_m_s,cog_rad,gps_hvel[0]_ratio,gps_hvel[1]_ratio,gps_vvel_ratio,gps_hpos[0]_ratio,gps_hpos[1]_ratio,gps_vpos_ratio,gps_hvel[0]_var,gps_hvel[1]_var,gps_vvel_var,gps_hpos[0]_var,gps_hpos[1]_var,gps_vpos_var,gps_hvel[0]_inn,gps_hvel[1]_inn,gps_vvel_inn,gps_hpos[0]_inn,gps_hpos[1]_inn,gps_vpos_inn,lat_glob,lon_glob,alt_glob,alt_ellipsoid_glob,eph_glob,epv_glob,x_loc,y_loc,z_loc,vx_loc,vy_loc,vz_loc,eph_loc,epv_loc,evh_loc,heading_loc,class
492098218,0.06532089,0.06011066,-0.07639757,0.2790714,0.0,0.0,0.0,-1.0,362048121,1382529181,48376,85473,1.3440001,2.1430001,0.71,1.2099999,100,36,0.007,-0.003,-0.007,0.003,2.734358,0.0057222308,4.292872e-06,6.230416e-05,3.7632096e-06,0.0094561055,0.0,0.10093274,0.10093434,0.21218905,1.8807939,1.8807939,0.0,-0.120162435,0.1051989,0.018179838,-0.013302088,-0.010282338,0.0,36.20481176543155,138.2529184210888,44.198864,85.43049,2.2467518,4.3704042,2.631361,0.18020865,0.05254706,-0.11979271,0.10434404,0.044746198,0.39722243,0.38583857,0.13876405,-2.4957995,gps jamming
547797869,0.23429058,-0.21293171,0.3580812,0.17309375,0.0,0.0,0.0,-1.0,362047962,1382529145,51406,88503,5.7180004,9.294001,0.75,1.2099999,157,33,0.34100002,-0.172,-0.29500002,-0.72300005,2.8430917,0.034011476,2.3165894e-06,0.0056494214,0.0032445884,0.015578041,0.0,1.0078728,1.0078638,2.1547654,33.827335,33.827263,0.0,0.88306487,0.92572856,0.5516606,1.6564705,-0.017723665,0.0,36.20481268077766,138.2529190865166,43.743305,87.02074,2.6634643,4.380682,2.7332578,0.24104603,0.50936764,-0.16012226,0.9092247,0.057675697,1.4865873,0.49169648,0.3309337,-2.980697,gps jamming
814459331,0.19364612,0.08033372,-0.09169693,0.25676933,0.0,0.0,0.0,-1.0,362048115,1382529234,37980,75076,2.043,3.0430002,0.77,1.3299999,97,17,0.020000001,0.003,0.020000001,-0.14600001,2.139812,0.0005305075,5.6775766e-06,0.0012808559,0.00012928565,0.011325893,0.0,0.13252755,0.13252805,0.28367695,4.321232,4.321233,0.0,-0.015855113,-0.04192467,0.09530862,0.11818135,0.0033517778,0.0,36.20481264328284,138.25292357724445,52.96572,75.17891,2.8059208,4.169745,-0.58875203,0.35404262,-4.007125,-0.08586046,0.048224654,-0.07765573,0.5408008,0.40825918,0.14888483,-2.3023462,benign flight
807060145,0.019612443,0.042743124,-0.09084316,0.26600686,0.0,0.0,0.0,-1.0,362048135,1382529237,37991,75088,2.0770001,3.051,0.77,1.3299999,96,35,0.07,-0.006,-0.07,0.019000001,2.139812,0.00024566965,6.707147e-06,0.0004874229,0.00038162063,0.013229619,0.0,0.26126027,0.26125965,0.56430495,4.5084825,4.508482,0.0,-0.021304982,0.040057324,0.082923934,0.20739636,-0.06540793,0.0,36.20481550860188,138.25292294590793,52.844074,75.0081,2.8104763,4.170494,-0.27574053,0.28732422,-3.8955486,0.048720896,0.122644775,0.013490934,0.5457223,0.41093007,0.17851895,-2.3196423,benign flight
392099372,0.06912885,0.059418015,-0.07154519,0.27640012,0.0,0.0,0.0,-1.0,362048051,1382529241,49163,86259,1.6890001,2.5700002,0.71,1.2099999,102,32,0.055000003,-0.029000001,-0.047000002,0.037,1.9975964,0.0039920965,5.561859e-06,0.035860773,0.00018931845,0.011106045,0.0,0.10152119,0.10152158,0.21395119,2.9611657,2.9611657,0.0,-0.10065813,-0.051754575,-0.43796277,-0.118385315,-0.06840205,0.0,36.20480399987828,138.25292342329806,44.90254,86.72217,2.2595875,4.370963,1.7637717,0.62804675,-0.66176087,-0.05250101,-0.016984401,-0.16818501,0.46456462,0.39498392,0.14270777,-2.514111,gps jamming
638059440,0.17493118,0.050377637,-0.043208007,0.2424401,0.0,0.0,0.0,-1.0,362048181,1382529163,39669,76765,2.4840002,3.7870002,0.77,1.35,102,30,0.011000001,0.011000001,0.003,0.017,6.1633263,0.0023267064,6.2208514e-06,0.0012515263,0.00030664037,0.012316293,0.0,0.14065069,0.14065781,0.29966655,6.4348903,6.4349,0.0,0.06681447,0.09045295,0.096829824,-0.22210342,-0.09054455,0.0,36.20481600402282,138.25291541816696,52.091278,77.26736,2.827869,4.1713796,-0.22936387,-0.37329704,-3.14947,0.08206541,0.06816834,0.15784994,0.6472065,0.42466405,0.15830016,-2.3095026,benign flight
335799329,0.15777154,0.06731716,-0.07905488,0.27256787,0.0,0.0,0.0,-1.0,362048061,1382529197,49138,86235,1.0580001,1.7140001,0.71,1.2099999,105,32,0.141,-0.135,0.040000003,-0.25,0.0,0.0053879796,3.893841e-06,0.01625154,3.060311e-06,0.010831195,0.0,0.117266975,0.11728998,0.21358544,1.1668708,1.166871,0.0,-0.12568136,0.06210821,-0.29457986,-0.009448528,0.007121533,0.0,36.20480572795488,138.25291980826913,44.321198,86.41615,2.2379477,4.3704863,1.9601392,0.30580485,-0.06852259,-0.17087458,-0.028429711,-0.38355973,0.35257602,0.39056355,0.22540992,-2.4853597,gps jamming
530097481,0.1930727,0.060564723,-0.098699704,0.29758513,0.0,0.0,0.0,-1.0,362048244,1382529524,51937,89034,5.413,9.106001,0.71,1.2099999,147,29,1.12,-0.27400002,-1.0860001,0.384,2.8430917,0.05923193,5.5475e-06,0.00023659409,0.0015781979,0.015307395,0.0,1.0723346,1.0723187,2.29262,30.42763,30.427532,0.0,-0.26770082,1.2601141,-0.116449594,0.6761732,1.095681,0.0,36.20482933665654,138.2529646515098,43.80475,87.619644,2.6692896,4.38042,4.534558,4.268486,0.46699163,-0.5445134,0.34616852,0.15523703,1.4695079,0.4919498,0.33374998,-2.4685855,gps jamming
373297506,0.18110874,0.091639206,-0.07240273,0.26790947,0.0,0.0,0.0,-1.0,362048031,1382529209,48966,86062,1.4940001,2.3370001,0.71,1.2099999,103,22,0.004,0.002,-0.003,-0.001,1.4001862,0.0014041539,3.629219e-06,0.0004576068,0.00037381594,0.011134304,0.0,0.10197337,0.101973236,0.21397842,2.3073156,2.3073149,0.0,-0.05983024,-0.0188081,-0.049476758,0.14684272,0.012265563,0.0,36.20480424216197,138.25292082930244,44.372795,85.912415,2.2542534,4.371866,1.7930058,0.39303258,-0.12179768,-0.04357022,-0.03404051,-0.08690559,0.43635902,0.4042164,0.14485636,-2.4880514,gps jamming
691556438,0.08414971,0.07818979,-0.08514195,0.26170722,0.0,0.0,0.0,-1.0,362048293,1382529228,40215,77312,2.9280002,4.051,0.77,1.3399999,100,19,0.31,-0.15400001,-0.27,0.087000005,0.18628335,0.030776232,6.4476544e-06,0.0003232275,9.769238e-05,0.01748894,0.0,0.27038613,0.27042222,0.5582991,8.953945,8.953941,0.0,-0.45611036,0.08039163,0.06716726,-0.14787936,-0.053610384,0.0,36.204827750349615,138.25292245770987,52.2424,77.07671,2.8711812,4.177985,1.0841894,0.2564062,-3.2934856,-0.4866208,0.09343509,-0.002617724,0.80849,0.48276353,0.2300196,-2.310464,benign flight
440098762,0.15507928,0.0689766,-0.07228929,0.27522707,0.0,0.0,0.0,-1.0,362048127,1382529223,48471,85567,1.5250001,2.329,0.71,1.2099999,101,28,0.028,0.027,-0.008,-0.040000003,1.9975964,0.00024111928,4.1682183e-06,2.0710788e-05,0.000102236656,0.009415138,0.0,0.10091892,0.10091897,0.21214215,2.4102883,2.4102883,0.0,0.011943433,0.024664504,0.010480495,0.069396496,0.07848883,0.0,36.2048130789504,138.25292304995097,44.55907,85.68399,2.2517767,4.3700976,2.777427,0.6015812,-0.3064547,-0.0090979915,-0.021788271,-0.011396902,0.42462558,0.38473722,0.13886006,-2.5124304,gps jamming
402697451,0.08769264,0.06613384,-0.0785146,0.27725217,0.0,0.0,0.0,-1.0,362048069,1382529222,48960,86057,1.6380001,2.569,0.71,1.2099999,102,37,0.036000002,0.036000002,-0.006,0.027,1.9975964,0.0022995789,6.040039e-06,0.00050070806,0.00017041374,0.012350831,0.0,0.12982535,0.12982915,0.26983446,2.8044515,2.804453,0.0,-0.086392075,-0.009819127,0.058118045,-0.109306574,0.08000499,0.0,36.20480587837116,138.2529228726352,44.889683,86.24991,2.262965,4.3728666,1.9740459,0.58056605,-0.64223874,-0.06599024,0.042914063,0.10576902,0.47669622,0.4145917,0.16481616,-2.5029142,gps jamming
783658995,0.0626986,0.06854938,-0.08373669,0.3160437,0.0,0.0,0.0,-1.0,362048182,1382529212,37817,74913,2.0470002,3.127,0.77,1.3299999,97,17,0.064,0.010000001,0.064,-0.017,2.139812,0.00042959116,4.7918693e-06,0.0005104875,0.00013572675,0.011358479,0.0,0.11022246,0.110222496,0.23240584,4.292884,4.292884,0.0,0.034405883,-0.011760073,-0.05446106,0.031610876,0.12069167,0.0,36.204818871470216,138.25292266138982,52.87874,75.0876,2.8076017,4.170818,0.100749135,0.27330843,-3.9104245,-0.01243985,0.027827865,-0.17552309,0.5511863,0.4199425,0.1517989,-2.3141136,benign flight
281951252,-0.038753714,0.08248853,-0.07958214,0.27638316,0.0,0.0,0.0,-1.0,362048174,1382529189,48439,85535,2.237,3.2010002,0.84,1.3,109,23,0.053000003,-0.001,0.053000003,-0.016,5.739625,0.0010769003,5.4539937e-06,0.013713406,0.00047223046,0.007497277,0.0,0.10569398,0.105697274,0.21702233,5.142914,5.1429157,0.0,0.05334367,-0.045403495,0.2727689,-0.2464062,0.09856367,0.0,36.20481467255464,138.25291993954923,51.885944,86.27099,2.734278,3.9298017,1.0155724,0.70644075,-0.18841337,-0.01603037,-0.013116757,0.24488582,0.59652567,0.40396595,0.15738977,-2.3837693,gps spoofing
375454380,0.1308357,0.077653065,-0.07916334,0.28396702,0.0,0.0,0.0,-1.0,362048210,1382529152,48296,85392,1.5920001,2.367,0.84,1.3,100,40,0.033,-0.031000001,-0.011000001,-0.019000001,5.739625,0.00019045384,5.762824e-06,0.003413254,1.0384774e-05,0.0061406153,0.0,0.121976815,0.121976934,0.2557316,2.6147158,2.6147158,0.0,-0.02409925,-0.01900089,0.14772245,-0.026054382,0.019958526,0.0,36.204820563337314,138.25291557690514,51.943954,85.241,2.7061493,3.9262352,1.6749667,0.3119631,-0.2451241,-0.071272686,0.026844077,0.07255465,0.43474314,0.36747772,0.14404488,-2.358711,gps spoofing
372653786,0.050163813,0.10428764,-0.072784595,0.27657437,0.0,0.0,0.0,-1.0,362048204,1382529161,48205,85301,1.577,2.338,0.84,1.3,100,14,0.012,0.006,0.010000001,0.035,5.739625,0.0074658175,6.189608e-06,0.0008657376,3.685166e-05,0.0060236496,0.0,0.10095666,0.10095721,0.20866165,2.5895164,2.5895164,0.0,-0.13727017,0.08967586,0.06720235,0.0117224455,-0.048843622,0.0,36.204820320416935,138.25291577190487,51.93546,85.18349,2.7060409,3.9261174,1.6479552,0.32945934,-0.23662929,-0.06768681,0.051221423,0.12290646,0.43406796,0.36621737,0.14124204,-2.3773127,gps spoofing
329750793,0.05590642,0.07541983,-0.06894172,0.2831468,0.0,0.0,0.0,-1.0,362048213,1382529122,47384,84480,2.278,2.9580002,0.84,1.3,101,11,0.074,-0.042000003,0.061000004,0.008,5.739625,7.2900875e-05,6.7944384e-06,0.003832812,8.074852e-05,0.006908469,0.0,0.11287625,0.11287696,0.2289135,5.350918,5.3509173,0.0,-0.014342923,0.005230263,0.1481032,-0.07167077,0.10393251,0.0,36.20482064498336,138.25291337305592,51.825054,84.593285,2.7300217,3.9280045,1.6843427,0.110088736,-0.12607516,-0.055184115,0.06761536,0.1701488,0.5750828,0.38540974,0.1671432,-2.3806934,gps spoofing
522796859,0.12769575,0.09504058,-0.089201994,0.25390998,0.0,0.0,0.0,-1.0,362048544,1382529640,58518,95615,5.471,9.110001,0.78,1.3199999,148,35,0.134,-0.126,0.045,-0.13800001,0.5637204,0.0039753364,4.876433e-06,8.0308135e-05,0.0003300778,0.015709179,0.0,1.134273,1.1341263,2.4167504,30.970161,30.970015,0.0,0.16654213,0.33572808,-0.06965715,-0.40701485,0.50553226,0.0,36.20485229053654,138.2529706777808,44.844498,87.93919,2.6708863,4.3810496,7.1376634,4.8700376,-0.59182453,0.2223045,0.01714433,-0.015721757,1.4998446,0.49496004,0.35803992,-2.5349534,gps jamming
798457506,0.065336205,0.081209704,-0.08303941,0.26240754,0.0,0.0,0.0,-1.0,362048162,1382529241,38227,75324,2.3920002,3.3090003,0.77,1.3299999,96,27,0.013,-0.012,-0.004,-0.029000001,2.139812,0.00020601973,4.813646e-06,0.0005662419,0.0002557834,0.011831083,0.0,0.10508607,0.1050857,0.22002916,5.9080286,5.9080296,0.0,-0.023264674,0.0008113056,-0.055809885,0.19436921,-0.15053576,0.0,36.20481807994374,138.25292218130645,53.025715,75.103195,2.8227756,4.1716743,0.011737607,0.22912082,-4.081379,-0.033355903,-0.0048783696,-0.08848372,0.6073105,0.42359397,0.15253234,-2.3201828,benign flight
860961051,0.0017195053,-0.020851696,0.0011723445,0.001,0.0,0.0,0.0,-1.0,362048166,1382529195,38653,75749,3.7250001,5.2920003,0.77,1.14,98,21,0.163,0.10700001,-0.123,0.023000002,1.6504296,0.003835137,5.331887e-06,0.0001192942,0.00026549745,0.020592859,0.0,0.78530294,0.78530383,1.6810883,14.090081,14.090073,0.0,-0.13714579,0.27439696,-0.070806794,-0.2076019,0.3058136,0.0,36.20481418195557,138.25292283312794,52.94953,75.80475,2.9735024,4.181534,-0.42454717,0.29009038,-4.0006146,-0.052261215,0.06202442,-0.07567373,1.11879,0.5125669,0.30631986,-2.4750051,benign flight
682859516,0.042173102,0.101901695,-0.06814627,0.25231048,0.0,0.0,0.0,-1.0,362048320,1382529177,39757,76853,2.493,3.532,0.77,1.3399999,100,21,0.22800002,-0.22600001,-0.031000001,-0.033,0.18628335,0.021667337,8.450819e-06,6.746042e-05,0.004054039,0.01693925,0.0,0.581897,0.5818903,1.2659787,6.272123,6.2721267,0.0,-0.05322846,0.56142706,-0.046206996,-0.797299,-0.029113546,0.0,36.2048259620258,138.2529176306028,52.276302,76.99292,2.832791,4.175067,0.8707535,-0.12883493,-3.3146634,-0.055520374,-0.18662782,-0.15439488,0.66336143,0.452831,0.22636423,-2.331658,benign flight
728058149,0.09248275,0.062867016,-0.07713173,0.26366636,0.0,0.0,0.0,-1.0,362048208,1382529229,38447,75544,1.756,2.8650002,0.77,1.3399999,106,22,0.032,0.0,0.032,-0.120000005,2.6998765,0.0019146111,6.532775e-06,3.4365854e-07,0.00026307578,0.011069473,0.0,0.11829253,0.118292466,0.25225687,3.2043757,3.2043757,0.0,0.003886748,-0.07524694,0.0014721602,0.14517176,0.023978353,0.0,36.20482212736503,138.25292278373095,52.42991,75.80922,2.7945597,4.168656,0.46259665,0.29547468,-3.4815357,-0.021956002,-0.05267473,-0.058241844,0.47561234,0.39603987,0.14633301,-2.321821,benign flight
352753334,0.14170946,0.080867045,-0.069324315,0.2790576,0.0,0.0,0.0,-1.0,362048202,1382529123,48004,85100,1.8770001,2.6460001,0.84,1.3,100,17,0.014,-0.014,0.0,0.013,5.739625,0.00018449393,6.524428e-06,0.0001929591,1.0668649e-05,0.0061758,0.0,0.10119065,0.101191334,0.2088234,3.6447988,3.6447988,0.0,-0.0025538057,0.021603927,0.031738926,-0.031178951,-0.000489749,0.0,36.20481994526153,138.2529120177823,51.863537,85.06628,2.715252,3.9267697,1.6040616,-0.009403728,-0.16110308,0.00515726,-0.013494738,0.050251346,0.4961493,0.37474108,0.14735343,-2.3954096,gps spoofing
432899018,0.12184862,0.081606746,-0.07595537,0.27158213,0.0,0.0,0.0,-1.0,362048132,1382529224,48561,85657,1.6450001,2.4160001,0.71,1.2099999,101,19,0.012,0.009000001,-0.009000001,-0.003,1.9975964,0.0040582293,3.7152536e-06,0.0013775954,0.00043236386,0.009697737,0.0,0.10140852,0.10140757,0.21244758,2.8118508,2.8118508,0.0,-0.063679524,0.10143165,-0.08553754,-0.043090105,0.1743375,0.0,36.204812744718105,138.2529244326973,44.542347,85.88005,2.2570033,4.370463,2.7399576,0.72392106,-0.28818956,-0.07052157,0.08722307,-0.08678668,0.451315,0.38886693,0.14168277,-2.4993513,gps jamming
317553277,0.109792285,0.08861201,-0.07014477,0.2853841,0.0,0.0,0.0,-1.0,362048179,1382529197,47725,84821,2.526,3.1430001,0.84,1.3,109,21,0.061000004,0.037,-0.049000002,0.13000001,5.739625,0.09908982,6.446921e-06,0.000595134,6.1744877e-06,0.006746526,0.0,0.10490304,0.104891464,0.21485211,6.660987,6.6609836,0.0,-0.37551567,0.5097469,0.05653888,0.03206563,0.03000611,0.0,36.2048175839701,138.25292161029225,51.85895,85.13614,2.7397952,3.9284902,1.3337551,0.8610196,-0.1548757,-0.3051503,0.441176,0.13962689,0.62028676,0.39310664,0.15621658,-2.3880036,gps spoofing
375950512,0.005317791,0.087204665,-0.077548906,0.2732508,0.0,0.0,0.0,-1.0,362048210,1382529152,48296,85392,1.5920001,2.367,0.84,1.3,100,40,0.033,-0.031000001,-0.011000001,-0.019000001,5.739625,0.00051563967,5.556905e-06,0.0006233136,4.3554242e-05,0.0062747775,0.0,0.16833337,0.16833346,0.35917497,2.654823,2.654823,0.0,-0.046583086,0.005653344,0.074812874,-0.053765416,0.029036283,0.0,36.20482058785996,138.25291564832094,51.972057,85.27748,2.7067325,3.926358,1.6783037,0.3183347,-0.26405305,-0.038985636,0.005497665,0.0033921993,0.44322062,0.36924323,0.14945938,-2.3608336,gps spoofing
368299544,0.14932786,0.056599982,-0.07738658,0.2707076,0.0,0.0,0.0,-1.0,362048048,1382529197,48787,85883,1.4430001,2.23,0.71,1.2099999,103,24,0.033,0.024,-0.022000002,0.075,1.4001862,0.0008041936,4.378197e-06,0.0002638738,7.5430966e-05,0.010789559,0.0,0.13113827,0.13113312,0.2802974,2.192214,2.192214,0.0,0.051346995,-0.0020061657,-0.043000914,0.052050233,-0.06429635,0.0,36.20480550761885,138.252919495839,44.357178,85.80371,2.2514045,4.371553,1.9220431,0.26415318,-0.111922495,0.23679437,0.15812953,0.018058106,0.4219492,0.40085396,0.14393644,-2.5110195,gps jamming
617559339,0.13108262,0.07433842,-0.067991495,0.27099976,0.0,0.0,0.0,-1.0,362048153,1382529221,41124,78220,1.7490001,3.065,0.77,1.35,103,22,0.048,0.048,-0.002,-0.006,1.1893106,0.00019759465,4.4905687e-06,0.00027421644,3.6610702e-06,0.011544202,0.0,0.13843837,0.13844031,0.27987054,3.1676142,3.1676142,0.0,-0.026150852,-0.012070062,-0.043802142,-0.0007996559,-0.01702708,0.0,36.20481507256223,138.2529219324028,51.89615,78.09109,2.7939775,4.1690817,-0.32551622,0.20927338,-2.9472296,-0.11243632,0.0058813775,-0.22984491,0.46506417,0.39842328,0.18220644,-2.404576,benign flight
724957609,-0.0015708776,0.10856285,-0.08353399,0.24978495,0.0,0.0,0.0,-1.0,362048211,1382529230,38535,75632,1.8110001,2.933,0.77,1.3399999,106,31,0.026,-0.007,0.025,-0.061000004,2.6998765,0.0062947236,5.5125515e-06,0.00021546206,0.0005039097,0.011524242,0.0,0.102106296,0.102104865,0.21471968,3.437831,3.4378312,0.0,0.094057895,0.1267598,0.0340088,0.20810792,0.055506796,0.0,36.20482339509783,138.25292409629537,52.427937,75.91082,2.7973158,4.1691885,0.5999075,0.40342724,-3.4790196,0.04114219,0.04141592,-0.024895621,0.48471642,0.3995389,0.1454561,-2.3302395,benign flight
655357504,0.14812593,0.09658766,-0.068555295,0.24314918,0.0,0.0,0.0,-1.0,362048156,1382529204,39996,77093,1.9070001,3.0800002,0.77,1.35,101,20,0.021000002,-0.020000001,0.006,-0.056,6.1633263,0.002036986,6.104286e-06,0.0005603723,0.00041129586,0.011187355,0.0,0.12235942,0.12236085,0.2612128,3.7647307,3.7647305,0.0,0.07893738,0.05402517,0.06049306,0.098596126,-0.19674972,0.0,36.20481657846621,138.25291847034185,52.00564,76.93224,2.7995489,4.1692514,-0.15806735,-0.10135787,-3.0567222,0.053940803,0.069967,-0.028751068,0.4974413,0.40019432,0.14368269,-2.3267481,benign flight
385750656,0.15987007,0.10673198,-0.9434254,0.31181204,0.0,0.0,0.0,-1.0,362049383,1382529030,51209,88305,6.2040005,6.5150003,0.95,1.41,139,20,1.4410001,1.3390001,0.53300005,-0.029000001,0.07176183,0.007400168,3.7836908e-05,0.0021127164,0.00021862544,0.014193234,0.0,2.7438638,2.7438846,5.962789,39.787533,39.78803,0.0,0.63564396,0.7124817,0.561197,-0.46633053,0.3755343,0.0,36.2049370570894,138.25290840492622,51.16522,85.26138,3.1776633,3.9350789,14.759935,-0.23709457,0.5283375,1.8474394,1.4073138,0.17814583,1.7535596,0.45194778,0.44639578,0.34009022,gps spoofing
351997014,0.15363137,0.13141926,-0.07704362,0.26570868,0.0,0.0,0.0,-1.0,362048076,1382529192,48957,86053,1.2060001,1.9510001,0.71,1.2099999,104,34,0.059000004,-0.045,-0.038000003,0.024,0.0,0.024455685,2.371231e-06,0.005902736,0.00019714732,0.011506504,0.0,0.1015641,0.101563886,0.21438338,1.5276561,1.5276568,0.0,0.24918967,0.17580101,0.17786571,0.08677173,0.020317197,0.0,36.20480883452668,138.25291986304947,44.482887,86.15038,2.242856,4.3707705,2.3055742,0.31071997,-0.23021454,0.12950896,0.07902277,0.060581457,0.38249648,0.39373192,0.14714624,-2.5050592,gps jamming
516398477,0.06411623,0.030205142,-0.0682182,0.22399436,0.0,0.0,0.0,-1.0,362048506,1382529554,60662,97758,4.9740005,8.107,0.78,1.3199999,161,45,0.45900002,-0.28,0.363,-1.161,0.123660244,0.013132494,4.519772e-06,0.012764784,0.00011445381,0.015397327,0.0,1.3174618,1.3174279,2.847964,25.179007,25.17901,0.0,0.17945287,-0.6576685,0.9533316,-0.26841354,-0.24571323,0.0,36.204850432741054,138.2529506116159,44.81413,87.26903,2.6014295,4.3808885,6.931085,3.0696144,-0.5614563,-0.104687795,0.14186607,-0.18419673,1.3723466,0.4935294,0.33643448,-2.541902,gps jamming
382352732,0.122415826,0.1991345,-0.30227956,0.3654286,0.0,0.0,0.0,-1.0,362049110,1382529113,51781,88877,5.4290004,4.8820004,0.95,1.41,139,48,1.3740001,1.3720001,-0.07300001,-0.48600003,0.07176183,0.01868075,6.079089e-06,0.0046726298,0.011819914,0.00933485,0.0,2.504366,2.5041869,5.477921,29.070852,29.07086,0.0,0.22110927,-1.0814352,0.79994214,-2.930934,0.2005493,0.0,36.204883050767606,138.2529112880118,51.608723,85.38388,2.997399,3.9334817,8.40796,0.010326556,0.040798623,1.5097647,-1.2134931,0.52227825,1.3647656,0.4382157,0.38216203,-2.3572032,gps spoofing
394452278,-0.57602173,-0.5756927,0.28300643,0.001,0.0,0.0,0.0,-1.0,362049034,1382529039,44335,81431,5.709,7.5080004,0.84,1.3,139,33,0.49400002,0.39000002,-0.303,0.13700001,0.58644736,0.018935272,8.349052e-06,0.006167271,0.009406005,0.026963424,0.0,0.71218604,0.71229386,1.4746324,34.300365,34.300922,0.0,-0.58063406,-0.085840955,-0.47682434,2.840024,0.5876955,0.0,36.20492815813879,138.25291107203626,51.857323,85.28432,3.080059,3.9469864,13.638963,-0.09223327,-0.15849486,-0.64156437,0.084717974,-0.15823686,1.5337933,0.54627734,0.35465613,-2.9029474,gps spoofing
480797166,0.08081551,0.09832682,-0.06614054,0.27433908,0.0,0.0,0.0,-1.0,362048121,1382529183,48541,85638,1.337,2.177,0.71,1.2099999,100,21,0.025,-0.014,-0.020000001,0.038000003,2.734358,0.00085969124,3.955785e-06,0.0012178755,6.432124e-05,0.009523364,0.0,0.10102902,0.101028904,0.2122631,1.8750477,1.8750477,0.0,-0.010217177,-0.046597656,-0.080391236,0.05078602,-0.054910243,0.0,36.20481262679656,138.25291768821447,44.190895,85.268875,2.246613,4.3703666,2.7272553,0.11558424,0.06177853,-0.0153935775,-0.04189167,-0.10101092,0.40394345,0.38922232,0.14381051,-2.495678,gps jamming
440298718,0.03824252,0.096674204,-0.069052964,0.27252033,0.0,0.0,0.0,-1.0,362048127,1382529223,48471,85567,1.5250001,2.329,0.71,1.2099999,101,28,0.028,0.027,-0.008,-0.040000003,1.9975964,0.00013793298,4.157782e-06,5.565067e-07,8.1883874e-05,0.009431258,0.0,0.10090678,0.10090661,0.2121761,2.4039943,2.4039943,0.0,-0.016747084,-0.018653652,-0.0017181197,0.052248716,0.07015133,0.0,36.204813105049,138.25292294113396,44.55802,85.68067,2.2518263,4.3700876,2.778543,0.59202737,-0.30670834,0.005995966,-0.011129164,-0.024136217,0.4241465,0.38401562,0.13878907,-2.5130615,gps jamming
669058589,-0.021757634,0.10468909,-0.08940063,0.25443155,0.0,0.0,0.0,-1.0,362048204,1382529174,39467,76564,1.973,3.1090002,0.77,1.35,101,23,0.085,-0.067,0.053000003,0.024,6.1633263,0.0002589647,6.2235454e-06,0.00028149236,4.6309586e-05,0.010937611,0.0,0.101328164,0.10132869,0.21406212,4.044454,4.044454,0.0,-0.003495723,0.025612768,-0.038812645,-0.06842825,-0.022354603,0.0,36.20481972426358,138.25291690082074,52.10761,76.83548,2.8035882,4.1693063,0.19301169,-0.24183995,-3.157013,-0.108722396,0.025969429,-0.010588476,0.52817476,0.4011522,0.14602019,-2.3084815,benign flight
393451285,-0.48279095,-0.87584597,-0.009351641,0.120073505,0.0,0.0,0.0,-1.0,362049091,1382529046,44673,81770,5.801,7.4810004,0.84,1.3,139,39,0.35300002,-0.351,-0.042000003,0.20400001,0.58644736,0.0042263833,8.125549e-06,0.0024141218,0.008849335,0.02785796,0.0,1.274323,1.274262,2.7461872,35.21692,35.217354,0.0,0.07190919,0.36693048,-0.40711272,2.7912645,0.64864415,0.0,36.20493653995483,138.25291265331475,51.808796,85.3359,3.0915513,3.9478037,14.570978,0.04964574,-0.10996585,-0.40997386,0.17803447,-0.15778574,1.5567427,0.5521527,0.3565469,-2.888547,gps spoofing
371852739,0.17333943,0.06613247,-0.0715007,0.27897137,0.0,0.0,0.0,-1.0,362048204,1382529162,48210,85306,1.588,2.351,0.84,1.3,100,19,0.035,0.027,-0.023000002,-0.013,5.739625,0.0007834361,6.2878266e-06,0.004546607,0.00011375304,0.006029609,0.0,0.10089136,0.10089129,0.20867947,2.6182008,2.6182008,0.0,-0.044452764,0.019267464,0.15401165,0.026399016,-0.08628851,0.0,36.20482069247839,138.2529151960339,51.921726,85.15849,2.706228,3.9261432,1.6893265,0.27778968,-0.22289492,0.0014396835,-0.04139833,0.12594084,0.4352328,0.36649483,0.14143197,-2.3758805,gps spoofing
475599612,0.05115924,0.08183649,-0.07173151,0.281267,0.0,0.0,0.0,-1.0,362048123,1382529180,48408,85505,1.3570001,2.193,0.71,1.2099999,100,36,0.037,-0.001,0.037,-0.158,2.734358,0.00044043065,4.4435824e-06,0.00075896736,1.1742104e-05,0.009487892,0.0,0.100924015,0.1009244,0.21222301,1.9299272,1.9299269,0.0,-0.0078120716,0.033335492,0.063456744,-0.00096559525,0.023801997,0.0,36.20481218877034,138.25291787644323,44.329792,85.243195,2.2470224,4.3701725,2.678549,0.13247295,-0.077119425,-0.02343364,0.01351936,0.033158038,0.40621412,0.38703966,0.1430598,-2.5071414,gps jamming
734960200,0.13452274,0.07512537,-0.07051608,0.26174486,0.0,0.0,0.0,-1.0,362048186,1382529218,38460,75557,1.83,2.887,0.77,1.3399999,113,20,0.0050000004,-0.0050000004,0.0,-0.058000002,2.6998765,0.0024110533,6.5423287e-06,0.0013750128,0.00021318499,0.01241282,0.0,0.11440082,0.11440129,0.24065809,3.506393,3.5063934,0.0,-0.08304012,0.05387386,-0.09095438,0.13670318,0.028961957,0.0,36.20481982317885,138.25292220744058,52.486603,75.729515,2.7994564,4.1705766,0.20272824,0.23395096,-3.5376842,-0.07077972,0.034411646,-0.045304812,0.49692157,0.41377434,0.15234208,-2.3275757,benign flight
403999700,-0.0491549,0.0855248,-0.08195635,0.2752389,0.0,0.0,0.0,-1.0,362048070,1382529225,48912,86008,1.6450001,2.581,0.71,1.2099999,102,45,0.064,-0.062000003,0.012,-0.0050000004,1.9975964,0.00015812891,5.991014e-06,0.002025205,9.9215584e-05,0.011681941,0.0,0.117396876,0.11739978,0.24531154,2.8214834,2.8214843,0.0,0.017894484,0.021543154,0.11144574,-0.08365631,0.033698022,0.0,36.20480614994596,138.25292285356826,44.8563,86.193405,2.261632,4.372677,2.0070624,0.57904243,-0.60362625,-0.08123794,0.081403285,0.10968202,0.48049837,0.41435963,0.15964577,-2.5060012,gps jamming
623159571,0.18195097,0.070327334,-0.0721587,0.23468399,0.0,0.0,0.0,-1.0,362048190,1382529182,40183,77280,1.8820001,3.173,0.94,1.68,103,29,0.17400001,-0.17400001,-0.011000001,0.133,6.1633263,0.21114145,5.896181e-06,0.00015416816,7.425357e-05,0.014755719,0.0,0.20920753,0.2094143,0.43519723,3.69229,3.6922991,0.0,1.0508614,-0.41489726,0.040955327,0.07519716,0.08278985,0.0,36.204821681918204,138.25291851431288,52.097633,78.03245,2.8093255,4.1730695,0.40941063,-0.097412586,-3.1487157,0.93165606,-0.3170505,0.046496045,0.5498038,0.43819034,0.1994016,-2.3601046,benign flight
696057954,0.07389779,0.038473327,-0.06122735,0.26286826,0.0,0.0,0.0,-1.0,362048299,1382529215,39190,76287,2.551,3.7730002,0.77,1.3399999,100,15,0.025,-0.012,0.022000002,-0.044000003,0.18628335,0.0002458313,6.32326e-06,0.0003106514,4.409144e-05,0.01182832,0.0,0.102932915,0.10293212,0.21515086,6.9242053,6.9242043,0.0,-0.025151605,-0.018019307,0.040876925,-0.026632786,0.08736391,0.0,36.20482956737183,138.25292263522243,52.37548,77.039,2.84019,4.1719418,1.2779733,0.2785314,-3.424688,-0.04226091,0.0004166878,-0.009885591,0.704284,0.43226635,0.1565829,-2.3312721,benign flight
277752008,0.15245666,0.08951644,-0.07953835,0.28991416,0.0,0.0,0.0,-1.0,362048168,1382529193,48955,86051,2.288,3.2730002,0.84,1.3,109,16,0.101,-0.004,0.101,0.08400001,5.739625,0.00084967446,4.8908464e-06,0.00012634246,0.00023179899,0.009419048,0.0,0.53335655,0.53334975,1.1468643,5.4443474,5.4443517,0.0,0.09881534,-0.10643938,-0.060186725,-0.1776228,-0.09311378,0.0,36.20481538536339,138.25291838800482,52.06947,86.73277,2.747559,3.9308252,1.084654,0.55616117,-0.37292823,0.0802591,0.035862822,0.04780832,0.6490963,0.41356465,0.23374207,-2.3845725,gps spoofing
511397229,0.00049491343,0.054934595,-0.078661025,0.27292785,0.0,0.0,0.0,-1.0,362048388,1382529339,56581,93678,4.0540004,5.8290005,0.78,1.3199999,160,33,1.2440001,1.24,0.102000006,-0.943,0.123660244,0.08596762,4.4012813e-06,0.00824694,0.002166986,0.015851667,0.0,1.0549428,1.0549494,2.2659152,16.140474,16.140432,0.0,-1.5057467,-0.13818744,0.6834996,-0.935096,-0.13665462,0.0,36.204824484145725,138.25292990034168,44.3446,86.298965,2.4949172,4.3807945,4.0457325,1.2113096,-0.09192664,0.175921,-0.06817629,-0.15924273,1.1578045,0.4926964,0.3245964,-2.4968061,gps jamming
517998076,0.06710338,0.102970466,-0.079997905,0.30396274,0.0,0.0,0.0,-1.0,362048458,1382529538,60386,97482,5.012,8.272,0.78,1.3199999,171,15,0.578,-0.577,0.027,-0.73,0.123660244,0.08300477,5.048146e-06,0.0070565776,0.00015952655,0.015315074,0.0,1.1439571,1.1440034,2.4585032,26.09836,26.098364,0.0,1.5407295,0.55916995,0.65857077,0.32262135,0.14776015,0.0,36.20485033185251,138.25295705768104,44.696716,87.31111,2.615326,4.380581,6.919867,3.6479833,-0.44404045,0.4262596,0.23560402,-0.13984703,1.3985097,0.490793,0.3358641,-2.511932,gps jamming
696359134,0.029678607,0.08553479,-0.063136436,0.255159,0.0,0.0,0.0,-1.0,362048299,1382529215,39190,76287,2.551,3.7730002,0.77,1.3399999,100,15,0.025,-0.012,0.022000002,-0.044000003,0.18628335,0.00023423073,6.322806e-06,3.1489442e-05,7.971764e-05,0.011694986,0.0,0.10250766,0.10250723,0.21486649,6.74912,6.7491193,0.0,-0.024500227,-0.016001523,0.013005793,-0.026196122,0.115976706,0.0,36.20482964254359,138.25292258524388,52.388744,77.03718,2.838403,4.1718693,1.2945918,0.2678491,-3.4398255,-0.051158585,0.002979165,-0.042317405,0.68301266,0.42660514,0.14824553,-2.3291464,benign flight
689460624,0.17832589,0.09037949,-0.08208182,0.24895887,0.0,0.0,0.0,-1.0,362048279,1382529250,40473,77570,2.881,3.9750001,0.77,1.3399999,100,22,0.044000003,0.014,-0.042000003,-0.043,0.18628335,0.035169683,5.905992e-06,0.00048583507,9.3476796e-05,0.01825177,0.0,0.4415093,0.44148785,0.94022065,8.723823,8.723814,0.0,0.19206294,0.6230367,-0.106863484,-0.118011415,-0.14278254,0.0,36.20482736713316,138.2529248134072,52.397778,77.186676,2.8645835,4.1777167,1.0625712,0.48030883,-3.4552083,0.105528876,0.40737066,-0.06381792,0.7967888,0.48206818,0.2469622,-2.3410797,benign flight
661757521,-0.035519496,0.05749289,-0.07006758,0.2133615,0.0,0.0,0.0,-1.0,362048196,1382529170,39976,77073,2.1880002,3.381,0.77,1.35,102,34,0.043,0.037,0.022000002,0.006,6.1633263,0.0016839884,6.5257855e-06,0.0023544447,0.00058458035,0.01688827,0.0,0.22237286,0.22237442,0.45912018,5.064941,5.0649424,0.0,-0.09675656,-0.07936753,-0.16439077,-0.27206916,0.12979192,0.0,36.20481730321074,138.25291842943312,52.110893,77.14192,2.8248184,4.1749973,-0.07747943,-0.105028376,-3.1619751,-0.05344975,0.014899315,-0.31872937,0.6241581,0.4561813,0.21260515,-2.3188114,benign flight
683359421,0.021067653,0.09524438,-0.07386216,0.2544713,0.0,0.0,0.0,-1.0,362048320,1382529177,39757,76853,2.493,3.532,0.77,1.3399999,100,21,0.22800002,-0.22600001,-0.031000001,-0.033,0.18628335,0.0034435114,8.788922e-06,1.0423842e-05,0.002598141,0.017298276,0.0,0.61511457,0.615114,1.3377291,6.4555817,6.4555836,0.0,0.23011704,-0.096626684,-0.018671017,-0.64754367,-0.1844057,0.0,36.20482655164442,138.25291586499984,52.298943,77.00844,2.8378105,4.175465,0.9508995,-0.3351205,-3.350027,0.03319871,-0.078482956,-0.062469278,0.6805457,0.4604448,0.23056698,-2.3242188,benign flight
755858755,0.14805587,0.07587284,-0.09338542,0.3037592,0.0,0.0,0.0,-1.0,362048234,1382529167,37859,74955,2.213,3.3660002,0.77,1.3399999,98,22,0.048,-0.006,0.047000002,-0.047000002,0.24033602,0.00026620607,8.069155e-06,0.00016439031,0.00010057973,0.01576544,0.0,0.41750056,0.41749835,0.90921,5.171569,5.171566,0.0,0.027581379,0.05271162,0.061128005,0.11403453,0.025435328,0.0,36.20482478983356,138.25291709455132,52.6887,75.3293,2.8220296,4.173973,0.7707383,-0.23153913,-3.7345173,-0.051313452,0.09747941,-0.101782605,0.6169458,0.44717804,0.19757785,-2.3340666,benign flight
273050343,0.081016324,0.06920147,-0.0794664,0.27539665,0.0,0.0,0.0,-1.0,362048115,1382529197,49279,86375,1.9540001,2.917,0.84,1.3,102,36,0.097,-0.07300001,0.063,0.066,0.0,0.0006080903,5.0949293e-06,0.00041183882,9.828397e-05,0.007025866,0.0,0.12411176,0.124117255,0.2581716,3.9563062,3.9563012,0.0,-0.043437067,0.023919625,0.051557027,0.09859532,-0.050025403,0.0,36.20481245541643,138.2529189699758,51.855556,86.76722,2.7198071,3.927711,0.77340704,0.6164043,-0.1567285,-0.007402801,0.005683897,0.011658686,0.51294094,0.3829246,0.15193275,-2.371098,gps spoofing
408497612,0.23095888,0.08729593,-0.08740833,0.2729953,0.0,0.0,0.0,-1.0,362048103,1382529256,48984,86081,1.6860001,2.5870001,0.71,1.2099999,102,19,0.020000001,-0.001,0.020000001,-0.034,1.9975964,0.012466128,5.9063254e-06,0.0039536813,0.00089111505,0.010649282,0.0,0.10233088,0.102332115,0.21347506,2.990916,2.9909165,0.0,-0.08462978,0.17858368,0.14525945,-0.2581303,-0.08853459,0.0,36.204807932767785,138.25292496839563,44.608635,85.91365,2.2610936,4.372151,2.1995323,0.77215165,-0.35898566,-0.08873154,0.10629641,0.15618907,0.470057,0.4046679,0.14694609,-2.495598,gps jamming
788160293,0.19305559,0.09739136,-0.081295416,0.26301515,0.0,0.0,0.0,-1.0,362048184,1382529218,37818,74914,2.1220002,3.1520002,0.77,1.3299999,97,11,0.094000004,-0.029000001,0.089,0.12900001,2.139812,0.00012691352,5.0143058e-06,0.0024805523,2.5381152e-05,0.012726277,0.0,0.35140505,0.35141024,0.76984406,4.4465666,4.44657,0.0,-0.033390887,0.012707777,-0.21849705,-0.0035005584,0.053117573,0.0,36.204818331085605,138.25292205245054,53.01025,75.15518,2.805484,4.170791,0.036815044,0.22004458,-4.0613337,-0.0008749987,0.018739482,-0.060535025,0.5298252,0.41592994,0.16876082,-2.3175159,benign flight
436598246,0.09670255,0.05126354,-0.08554688,0.2730412,0.0,0.0,0.0,-1.0,362048133,1382529229,48333,85430,1.559,2.3500001,0.71,1.2099999,101,14,0.010000001,0.0,-0.010000001,-0.039,1.9975964,0.008619176,4.1222193e-06,0.0015585483,3.0681345e-05,0.009552546,0.0,0.11279392,0.112790756,0.23870187,2.5381608,2.5381606,0.0,0.12553127,-0.15589768,0.09644019,4.9829483e-05,0.044123173,0.0,36.204813620742776,138.25292266261746,44.603943,85.808914,2.253735,4.3702674,2.8377771,0.56190944,-0.35126927,0.10874162,-0.14221752,0.029434599,0.44183844,0.38810435,0.14477645,-2.497063,gps jamming
704157428,0.06481046,0.07400465,-0.06801657,0.25521782,0.0,0.0,0.0,-1.0,362048292,1382529227,39125,76222,2.237,3.4020002,0.77,1.3399999,99,28,0.041,-0.016,-0.038000003,-0.058000002,0.18628335,0.0006254597,5.221846e-06,0.00027061984,3.6434226e-06,0.01174568,0.0,0.12540601,0.12540616,0.26628518,5.18335,5.18335,0.0,-0.042975858,-0.04428219,0.042444684,-0.021728516,-0.016355455,0.0,36.204829111892245,138.25292266707834,52.436832,76.66277,2.8127625,4.169931,1.235586,0.27519163,-3.4879146,-0.03480839,-0.014259015,0.0050710607,0.567104,0.40721217,0.15006594,-2.3204308,benign flight
552099228,0.09973111,0.03449668,-0.10185853,0.001,0.0,0.0,0.0,-1.0,362047928,1382529143,51891,88987,5.4350004,8.729,0.71,1.2099999,146,11,0.18900001,-0.164,-0.093,-0.109000005,2.8430917,1.783545e-05,2.012228e-06,0.0006158621,0.00061537547,0.02130008,0.0,0.96597064,0.96609515,2.0517676,30.36767,30.367666,0.0,-0.016829133,0.020754963,-0.17773616,0.6835115,0.07754325,0.0,36.20479731967795,138.2529165420838,44.415134,88.09976,2.6377242,4.380353,1.0521855,0.012972923,-0.17919818,-0.28618643,0.22021337,-0.36550745,1.420879,0.4880246,0.34272367,-2.6011198,gps jamming
517298252,-0.018653013,0.07070846,-0.0979104,0.27355003,0.0,0.0,0.0,-1.0,362048506,1382529554,60662,97758,4.9740005,8.107,0.78,1.3199999,161,45,0.45900002,-0.28,0.363,-1.161,0.123660244,0.03834227,4.947205e-06,0.01155889,7.2526906e-05,0.015286532,0.0,1.085304,1.0852848,2.3244267,25.882288,25.882292,0.0,1.0199635,0.9861089,0.8195699,0.11383581,0.21663117,0.0,36.20485129443815,138.25295819029583,44.736862,87.29156,2.6120334,4.3805566,6.9861045,3.7324028,-0.48857686,0.9737813,0.8415464,-0.08266763,1.3679838,0.4908993,0.3309832,-2.4984517,gps jamming
326251523,0.03926981,0.07268672,-0.06722889,0.27785128,0.0,0.0,0.0,-1.0,362048210,1382529121,47254,84350,2.328,2.97,0.84,1.3,101,18,0.038000003,0.035,-0.015000001,0.028,5.739625,0.0027726716,6.8582303e-06,0.013276684,0.00038294023,0.007363807,0.0,0.2207951,0.22079808,0.46103248,5.7520714,5.752071,0.0,-0.012352407,-0.123713434,0.39118356,-0.11496532,0.23466462,0.0,36.20481924281444,138.25291496087934,51.88965,84.75682,2.734443,3.9281175,1.5281312,0.2566906,-0.19081724,-0.16417462,-0.020400278,0.13480113,0.58560777,0.38707227,0.18935865,-2.3791904,gps spoofing
652356849,0.025488932,0.06385283,-0.0686787,0.26091996,0.0,0.0,0.0,-1.0,362048152,1382529192,39838,76935,1.9750001,3.1590002,0.77,1.35,102,15,0.048,-0.004,-0.048,0.085,6.1633263,0.0024928912,5.871037e-06,1.8133526e-06,0.00043902016,0.011821665,0.0,0.11930547,0.11930728,0.2530561,4.0413966,4.041396,0.0,0.0862287,0.0767145,0.003387034,0.21060951,-0.1936699,0.0,36.20481738219732,138.25291738189696,52.05701,76.97668,2.8040164,4.1701465,-0.06869652,-0.1990179,-3.108092,0.101739615,0.07822036,0.121443965,0.521998,0.40941447,0.14873369,-2.3204849,benign flight
767258321,0.07534162,0.08462098,-0.09365206,0.26249653,0.0,0.0,0.0,-1.0,362048217,1382529184,38032,75128,2.051,3.265,0.77,1.3399999,97,20,0.047000002,-0.040000003,0.024,-0.104,0.24033602,0.005640953,7.722579e-06,0.0062594726,7.271476e-05,0.012529683,0.0,0.17082536,0.170825,0.36591893,4.3589983,4.3589983,0.0,-0.08777304,-0.15521081,0.23929372,0.04182571,-0.08901735,0.0,36.20482181711352,138.25291707911006,52.73373,75.09828,2.8078752,4.171114,0.4436369,-0.2072889,-3.7866623,-0.17535433,-0.17306913,0.12555464,0.55011225,0.4211186,0.16301349,-2.3282158,benign flight
656059857,0.10948506,0.058744304,-0.069441855,0.2441746,0.0,0.0,0.0,-1.0,362048163,1382529205,40157,77253,1.8730001,3.029,0.77,1.35,102,16,0.018000001,-0.015000001,-0.010000001,-0.043,6.1633263,0.002060117,6.199656e-06,0.0008730285,0.00032337822,0.011222586,0.0,0.101820655,0.10182184,0.21438105,3.6602871,3.6602874,0.0,-0.072415896,0.0054051024,0.068403356,0.027608559,-0.1720216,0.0,36.20481629448548,138.25291847570824,52.026764,76.970726,2.7987747,4.169106,-0.1858205,-0.10108956,-3.0732505,-0.021111095,-0.007044862,-0.007672851,0.5014738,0.40172008,0.14933851,-2.3251116,benign flight
445698818,0.037346996,0.0856721,-0.07735095,0.28197715,0.0,0.0,0.0,-1.0,362048131,1382529213,48217,85313,1.478,2.2900002,0.71,1.2099999,100,28,0.007,-0.003,0.007,-0.165,2.734358,0.00077041343,3.4434954e-06,0.00446228,9.874095e-05,0.009645925,0.0,0.1010292,0.10103042,0.2123971,2.2843826,2.2843826,0.0,0.033969194,-0.044112127,0.1539298,-0.04416895,0.07509363,0.0,36.20481281817681,138.2529219845918,44.668385,85.68686,2.2518191,4.3705254,2.7559743,0.50480616,-0.41133153,-0.010248111,-0.03711401,0.010866172,0.4245372,0.38955182,0.13938403,-2.492722,gps jamming
631959263,0.10027595,0.015552819,-0.07079831,0.24584886,0.0,0.0,0.0,-1.0,362048175,1382529138,39967,77064,2.6880002,4.085,0.77,1.35,102,24,0.030000001,0.028,-0.012,-0.016,6.1633263,0.002369597,8.503833e-06,0.0011461722,0.0015629207,0.017707864,0.0,0.25336155,0.2533159,0.51744545,7.6914897,7.6915545,0.0,0.021634478,-0.12250067,-0.12176633,-0.5482059,0.1411699,0.0,36.20481300691187,138.25291565004926,52.15028,77.73133,2.8629546,4.1785645,-0.55520606,-0.35440686,-3.2013638,-0.030259062,-0.04833885,-0.06973357,0.77877086,0.48775306,0.2330242,-2.3010657,benign flight
741557339,0.11016746,0.103565365,-0.12838566,0.2664447,0.0,0.0,0.0,-1.0,362048187,1382529201,38525,75622,1.748,2.825,0.77,1.3399999,113,43,0.074,0.054,-0.05,0.09900001,2.6998765,0.0007939498,5.40855e-06,0.0023917407,6.777709e-05,0.012025268,0.0,0.13256931,0.13256904,0.28190142,3.171062,3.1710622,0.0,-0.012797034,0.051296484,-0.12983018,0.04650797,0.073301665,0.0,36.204819101730685,138.2529212289297,52.515064,75.6721,2.7952533,4.169545,0.122506864,0.14615469,-3.566147,0.10406883,0.15701257,-0.11545435,0.47266844,0.40324315,0.15210661,-2.2935581,benign flight
714660024,0.1510037,0.062625214,-0.07851561,0.255991,0.0,0.0,0.0,-1.0,362048229,1382529249,39077,76173,2.0970001,3.2470002,0.77,1.3399999,99,15,0.024,0.0050000004,-0.024,0.010000001,2.6998765,0.0013304282,6.7344836e-06,4.0894745e-05,0.00067657576,0.011522601,0.0,0.12390447,0.123902276,0.2631509,4.515498,4.515499,0.0,-0.064196184,-0.0013539158,0.016402354,0.27636373,-0.22419742,0.0,36.20482570342737,138.25292221713767,52.39247,76.21359,2.807669,4.1699505,0.8624772,0.231971,-3.4394107,-0.022205293,-0.01062909,0.031674057,0.5495071,0.41006133,0.15265073,-2.3261774,benign flight
523296727,0.19280505,0.02760911,-0.06901408,0.2937985,0.0,0.0,0.0,-1.0,362048544,1382529640,58518,95615,5.471,9.110001,0.78,1.3199999,148,35,0.134,-0.126,0.045,-0.13800001,0.5637204,0.0024220387,5.097808e-06,9.101604e-05,0.00038894868,0.015741756,0.0,1.1374245,1.1372759,2.42608,31.209063,31.20891,0.0,0.26243505,0.24501316,-0.074298754,-0.19286919,0.55087805,0.0,36.204853447752,138.25296919032024,44.73133,87.88583,2.6726496,4.3810472,7.240211,4.7364163,-0.4909318,0.46490985,0.24964689,-0.08064229,1.4788307,0.4902746,0.34988788,-2.5280862,gps jamming
351797037,0.07298808,0.08604598,-0.07584675,0.3030675,0.0,0.0,0.0,-1.0,362048076,1382529192,48957,86053,1.2060001,1.9510001,0.71,1.2099999,104,34,0.059000004,-0.045,-0.038000003,0.024,0.0,0.01605811,2.3409652e-06,0.0073880893,0.00010234423,0.01154125,0.0,0.11476432,0.114770554,0.2436853,1.5229039,1.5229046,0.0,0.20288181,0.21465078,-0.21215376,0.062422037,0.026800424,0.0,36.204809003777285,138.25292012730762,44.512028,86.18188,2.2427487,4.370789,2.324394,0.33443037,-0.25935528,0.2434782,0.14885426,0.20890512,0.38186598,0.39393598,0.14773199,-2.5073376,gps jamming
675159869,0.12862305,0.07625611,-0.064164564,0.2470558,0.0,0.0,0.0,-1.0,362048256,1382529206,39786,76882,2.39,3.463,0.77,1.3399999,100,12,0.029000001,0.020000001,0.021000002,-0.031000001,6.1633263,0.008017039,5.9929653e-06,4.56829e-05,0.0010476122,0.017410377,0.0,0.71349925,0.7134981,1.5601734,5.864434,5.8644333,0.0,-0.24802834,0.3781581,-0.04221174,-0.39190727,0.051296916,0.0,36.20482265385299,138.252921262885,52.13288,76.87628,2.8289523,4.1751084,0.51748484,0.1492013,-3.1839628,0.045379736,0.12344969,-0.003891975,0.64260876,0.45719644,0.22949196,-2.3399339,benign flight
717460611,0.15824364,0.074018605,-0.07640138,0.24882352,0.0,0.0,0.0,-1.0,362048247,1382529233,38679,75775,1.9700001,3.1020002,0.77,1.3399999,99,23,0.032,0.032,0.001,0.085,2.6998765,0.0003941766,6.606632e-06,5.268095e-05,2.1122396e-08,0.01125202,0.0,0.12590438,0.12590419,0.268835,4.012561,4.0125613,0.0,-0.03522377,0.025099017,-0.018816538,2.2530556e-05,0.0014556348,0.0,36.204824511584526,138.2529233558228,52.44937,76.18472,2.8022666,4.1690187,0.71597034,0.34704193,-3.5022342,-0.029719347,-0.018092811,-0.03625299,0.5197223,0.39977524,0.14874613,-2.3202856,benign flight
471998037,0.030514408,0.11682242,-0.07200848,0.27772072,0.0,0.0,0.0,-1.0,362048121,1382529180,48398,85495,1.3640001,2.2020001,0.71,1.2099999,99,23,0.016,0.0050000004,-0.016,-0.049000002,2.734358,0.0005080539,4.015503e-06,0.004068464,3.452596e-05,0.009377638,0.0,0.100788735,0.10078675,0.21210344,1.9450414,1.9450412,0.0,0.0026714006,-0.035778873,0.1468788,-0.0409739,-0.010969549,0.0,36.20481153663361,138.25291780897606,44.37643,85.19411,2.247602,4.3701625,2.6060348,0.1264195,-0.12375756,-0.1321803,0.06674144,0.09709394,0.40940732,0.38691974,0.14247642,-2.5121913,gps jamming
335399384,0.09845514,0.094213404,-0.07310089,0.27082866,0.0,0.0,0.0,-1.0,362048061,1382529197,49138,86235,1.0580001,1.7140001,0.71,1.2099999,105,32,0.141,-0.135,0.040000003,-0.25,0.0,0.0005536587,3.3059678e-06,3.576861e-05,1.378464e-06,0.010794473,0.0,0.108102284,0.108103566,0.21354689,1.160637,1.160637,0.0,-0.03868196,0.024153387,0.013818715,0.0062491894,-0.006324351,0.0,36.204806121510366,138.25291981851112,44.18717,86.288,2.237896,4.3703947,2.0039005,0.3067238,0.06550501,-0.17261471,0.032769658,-0.26380324,0.35224804,0.38953847,0.19548972,-2.5203595,gps jamming
533096711,0.15741892,0.093789324,-0.14248973,0.29698303,0.0,0.0,0.0,-1.0,362048315,1382529278,51398,88495,5.4700003,9.0,0.82,1.37,147,22,0.90200007,0.48800004,-0.758,0.096,2.8430917,0.054255825,7.9880365e-06,2.7211958e-05,0.0011081856,0.01512031,0.0,1.0524544,1.0525669,2.24724,30.940462,30.940414,0.0,-1.194799,0.24127692,-0.03909981,-0.13028574,0.92584723,0.0,36.20482882610862,138.2529336307264,43.620964,87.74341,2.661088,4.380527,4.4997554,1.6519431,0.63345736,-0.79593277,-0.5666882,0.045528986,1.4610846,0.49055874,0.3352775,-2.2329712,gps jamming
671358136,0.0025845598,0.036937766,-0.07941225,0.2507504,0.0,0.0,0.0,-1.0,362048201,1382529186,39875,76971,1.9540001,3.1000001,0.77,1.3399999,101,24,0.071,-0.071,0.001,-0.054,6.1633263,0.00055487204,6.076685e-06,0.00028225104,0.00015639103,0.012065611,0.0,0.16663195,0.16663192,0.35824594,3.9542823,3.9542825,0.0,0.048077907,0.010179652,0.05027805,-0.013759509,-0.12433969,0.0,36.20482010582054,138.25291721470077,52.1221,76.84245,2.802317,4.1696386,0.23415656,-0.21401946,-3.1731844,0.038357615,0.08411918,-0.013585502,0.5127905,0.4042077,0.15406525,-2.3186746,benign flight
405798117,0.033674546,0.080541305,-0.082197785,0.26612863,0.0,0.0,0.0,-1.0,362048076,1382529233,48857,85953,1.651,2.595,0.71,1.2099999,102,18,0.035,-0.011000001,-0.033,-0.080000006,1.9975964,0.0024325193,5.9439567e-06,0.020243825,0.00019206054,0.010765271,0.0,0.10866805,0.10867021,0.22867326,2.8363247,2.8363254,0.0,-0.08129224,-0.016904388,0.34019193,-0.11669898,-0.036999524,0.0,36.20480658840314,138.25292303355798,44.82816,86.13374,2.2593176,4.372089,2.0558167,0.5951919,-0.57548505,-0.06536516,0.059294097,0.20707704,0.46948478,0.4081067,0.14999987,-2.5059018,gps jamming
286554178,0.07356348,0.034425244,-0.076389775,0.2866889,0.0,0.0,0.0,-1.0,362048205,1382529186,48024,85121,2.43,3.3190002,0.87,1.3299999,101,27,0.363,0.24900001,0.263,-0.027,5.739625,0.0003866138,5.8836195e-06,0.0018425417,0.0004075099,0.008033482,0.0,0.7938808,0.7938814,1.7425281,6.091194,6.091192,0.0,0.08759642,0.050500616,0.28331435,-0.2491095,0.14407063,0.0,36.204816014160926,138.25292046822983,51.624275,85.6785,2.7425318,3.9298112,1.1904324,0.7340503,0.06874156,-0.30054176,0.30473027,0.24287745,0.62432975,0.40424523,0.21232207,-2.3770535,gps spoofing
644859449,0.15651986,0.072971255,-0.074392885,0.28362292,0.0,0.0,0.0,-1.0,362048185,1382529190,39950,77046,2.117,3.3560002,0.77,1.35,102,27,0.052,-0.046000004,0.024,-0.15300001,6.1633263,0.0066017867,6.341677e-06,0.0070777666,0.00034967315,0.011534417,0.0,0.16696824,0.16697046,0.36120936,4.6293974,4.6293974,0.0,-0.16600367,-0.04496398,0.25281197,-0.0118623115,-0.20117007,0.0,36.2048180557403,138.25291672173373,51.950882,76.93892,2.8078344,4.1693563,0.00047440507,-0.26562676,-3.0207388,-0.06290477,-0.06852562,0.12904857,0.5484939,0.40243158,0.1495678,-2.2971818,benign flight
516899594,0.17244324,0.080782115,-0.0821165,0.2861323,0.0,0.0,0.0,-1.0,362048506,1382529554,60662,97758,4.9740005,8.107,0.78,1.3199999,161,45,0.45900002,-0.28,0.363,-1.161,0.123660244,0.00027307565,4.5278207e-06,0.02203183,9.553369e-06,0.015414322,0.0,1.2186002,1.2186556,2.6253262,25.705402,25.705404,0.0,0.032153457,0.091212004,1.2025051,-0.041542053,-0.07835388,0.0,36.20484954173374,138.25295575431255,44.739693,87.25439,2.6093974,4.3809147,6.8183823,3.450339,-0.4890449,-0.035694595,0.5371317,-0.066213116,1.3627298,0.49411288,0.33080572,-2.531996,gps jamming
269350992,0.2172953,0.09327168,-0.07667134,0.27238953,0.0,0.0,0.0,-1.0,362048116,1382529206,49515,86611,1.996,2.966,0.84,1.3,102,28,0.091000006,0.089,-0.021000002,0.045,0.0,0.01298169,6.121388e-06,0.0099933185,0.00047241687,0.0071197995,0.0,0.25025785,0.25022137,0.5364353,4.118567,4.118556,0.0,0.043141685,-0.28496912,0.36608636,0.15314096,-0.22054905,0.0,36.20481326175678,138.2529162752994,51.766804,86.78028,2.7232451,3.9281206,0.8831102,0.3321762,-0.06142555,0.012573867,-0.10518726,0.0916111,0.5359258,0.38746265,0.17194977,-2.3579907,gps spoofing
809458216,0.038916603,0.06479164,-0.07774882,0.2677587,0.0,0.0,0.0,-1.0,362048123,1382529237,38222,75318,2.131,3.1250002,0.77,1.3299999,96,8,0.063,-0.014,0.061000004,-0.11800001,2.139812,0.0013768895,6.197468e-06,1.7509008e-05,0.00039830097,0.014019631,0.0,0.44784355,0.44784313,0.97953266,4.7563066,4.7563066,0.0,0.12416029,-0.09999204,-0.020706668,0.21762592,-0.08731231,0.0,36.20481364971086,138.2529226099738,53.010048,75.19945,2.8132582,4.172092,-0.4721763,0.27042827,-4.0565934,-0.07694226,-0.027293136,-0.17869116,0.5729422,0.4251868,0.18894759,-2.317781,benign flight
637359570,0.15045668,0.059379224,-0.028874192,0.2440578,0.0,0.0,0.0,-1.0,362048182,1382529164,39597,76693,2.542,3.8470001,0.77,1.35,102,30,0.067,0.049000002,-0.046000004,0.08800001,6.1633263,0.003124751,6.1624446e-06,0.0011008387,0.00047076747,0.012640369,0.0,0.12146239,0.12146988,0.2554008,6.683019,6.6830325,0.0,-0.015537884,0.0974119,0.083838396,-0.28045267,-0.096852064,0.0,36.20481553334884,138.2529155548408,52.176662,77.39845,2.8315892,4.1720963,-0.2742791,-0.36294937,-3.2277462,0.02317799,0.0778565,0.19942087,0.6541192,0.42881957,0.15636028,-2.3168378,benign flight
439198953,0.0067234477,0.09621907,-0.07822099,0.27566352,0.0,0.0,0.0,-1.0,362048130,1382529228,48419,85515,1.5410001,2.342,0.71,1.2099999,101,21,0.006,-0.0050000004,-0.003,-0.023000002,1.9975964,0.0092000775,4.256428e-06,1.9128309e-05,4.9471735e-05,0.009447898,0.0,0.100962944,0.10096067,0.21217783,2.4603088,2.4603088,0.0,0.06883122,-0.15238488,0.0100729875,0.05516243,0.030208945,0.0,36.20481332503879,138.2529226961464,44.547203,85.68646,2.2522488,4.3702207,2.8048964,0.5649178,-0.29453054,-0.008151942,-0.05679657,-0.023246031,0.43419364,0.38757727,0.14353308,-2.504797,gps jamming
278051952,0.12714407,0.10183523,-0.08416758,0.27734703,0.0,0.0,0.0,-1.0,362048168,1382529193,48955,86051,2.288,3.2730002,0.84,1.3,109,16,0.101,-0.004,0.101,0.08400001,5.739625,0.00081011414,4.949492e-06,0.00020372518,0.00022091997,0.009478546,0.0,0.52555513,0.5255479,1.1278741,5.594204,5.5942082,0.0,0.10316972,0.082201034,-0.07579188,-0.17577481,-0.063871324,0.0,36.20481585249216,138.25291830211043,52.069386,86.719444,2.7500913,3.9309251,1.1511446,0.55648047,-0.37055477,0.34810343,-0.17318988,0.0052813506,0.6547974,0.41459617,0.23370227,-2.3819942,gps spoofing
623656970,0.09107731,0.067420736,-0.07250927,0.24653074,0.0,0.0,0.0,-1.0,362048190,1382529182,40183,77280,1.8820001,3.173,0.94,1.68,103,29,0.17400001,-0.17400001,-0.011000001,0.133,6.1633263,0.0071136495,5.7265597e-06,0.0001618458,0.00023516343,0.014589744,0.0,0.21915473,0.21925196,0.46264237,3.6739025,3.67391,0.0,-0.19742024,0.025000993,-0.04326567,-0.051864564,0.14696677,0.0,36.20481827261581,138.25291982270704,52.075993,77.965355,2.8094392,4.1731935,0.10731883,-0.0006044144,-3.1376402,-0.17985441,-0.00475636,0.12623413,0.56115603,0.4413904,0.19656688,-2.3657238,benign flight
529300197,0.14610663,0.0747471,-0.078041546,0.2782648,0.0,0.0,0.0,-1.0,362048289,1382529627,52717,89813,5.452,9.155001,0.71,1.2099999,147,20,0.266,0.178,-0.19700001,0.208,2.8430917,0.02498854,4.593632e-06,0.000358153,0.001093415,0.015471988,0.0,0.95890224,0.9588722,2.033397,30.634739,30.63463,0.0,-0.44822824,0.7739641,-0.13493213,0.43616867,0.9151006,0.0,36.20483155447272,138.2529701091131,43.952465,87.70717,2.6725686,4.380808,4.807066,4.913062,0.29203895,-0.20461187,0.12427728,0.081489146,1.4830925,0.49402577,0.33868647,-2.5350785,gps jamming
288352598,0.07926306,0.10987896,-0.080503166,0.27177978,0.0,0.0,0.0,-1.0,362048223,1382529195,47763,84860,2.3390002,3.2210002,0.84,1.3,101,18,0.021000002,0.021000002,-0.002,0.094000004,5.739625,0.00073950103,5.7757866e-06,0.008772143,0.0014886506,0.0075378,0.0,0.10696694,0.106965065,0.2102917,5.7710404,5.7710385,0.0,0.0444697,0.026296897,0.21475036,-0.46343994,0.18912953,0.0,36.2048178608817,138.2529213043218,51.659492,85.607666,2.7390192,3.9297078,1.3550303,0.81507355,0.044682853,0.02201446,0.05358901,0.22478816,0.62502134,0.4037373,0.18223315,-2.3764973,gps spoofing
738758026,0.06411417,0.081102684,-0.07099746,0.25313824,0.0,0.0,0.0,-1.0,362048189,1382529197,38404,75500,1.7730001,2.8290002,0.77,1.3399999,113,16,0.022000002,-0.022000002,-0.001,-0.027,2.6998765,0.0065813353,5.078248e-06,0.00038207107,0.00031092277,0.0115473615,0.0,0.101284854,0.101285286,0.21409197,3.2521074,3.2521076,0.0,-0.12909198,0.023541592,0.04522122,0.04403829,0.15899326,0.0,36.2048193362131,138.25292154230914,52.47214,75.65187,2.797588,4.169339,0.14858012,0.17427246,-3.5232248,-0.024743192,-0.026497668,-0.016877087,0.4862858,0.40111086,0.14998847,-2.3170137,benign flight
855857515,0.064877555,0.027819177,-0.07396313,0.001,0.0,0.0,0.0,-1.0,362048147,1382529205,40120,77216,3.2,4.393,0.77,1.14,97,26,0.44000003,0.41500002,-0.14600001,-0.333,1.6504296,0.006573318,6.0347475e-06,7.1359456e-05,3.974011e-05,0.021031493,0.0,0.96811956,0.9681103,2.1034954,10.347523,10.347474,0.0,-0.39886582,0.011531793,-0.061258525,0.09053758,0.10139154,0.0,36.204814336619286,138.25292136012413,53.221977,75.82997,2.9051197,4.17911,-0.39349848,0.16296317,-4.280148,-0.1336768,-0.08885025,-0.18327107,0.932649,0.4926381,0.28638032,-2.4107099,benign flight
449096828,0.17215167,0.11077045,-0.08983329,0.2776119,0.0,0.0,0.0,-1.0,362048139,1382529202,48218,85314,1.442,2.259,0.71,1.2099999,100,39,0.062000003,-0.061000004,-0.007,0.039,2.734358,0.00011861047,3.514338e-06,0.0019743417,0.00031709787,0.009566077,0.0,0.10340329,0.1034065,0.21774536,2.1711607,2.171161,0.0,-0.0037109666,0.017510777,-0.103670605,-0.09668183,0.13119361,0.0,36.20481350779116,138.25292153136422,44.604553,85.50574,2.2497375,4.3702774,2.8178613,0.46358225,-0.35863876,0.08337246,0.03652709,-0.07241322,0.41367236,0.38677427,0.13986297,-2.4933028,gps jamming
845857912,0.10721389,0.05911418,-0.06541824,0.26286936,0.0,0.0,0.0,-1.0,362048211,1382529255,38408,75504,2.0670002,2.8700001,0.77,1.14,96,22,0.025,0.025,0.004,-0.016,1.6504296,0.014316437,6.1783435e-06,0.0032615846,0.00016000104,0.01188356,0.0,0.22263639,0.22264855,0.48004934,4.3832426,4.3832436,0.0,-0.28228354,0.018516192,0.197846,-0.13241255,0.0039607882,0.0,36.20481947539375,138.2529255647786,53.069344,74.9234,2.8050168,4.169799,0.19125012,0.52980256,-4.131662,-0.34805483,0.061340526,0.08405789,0.5323835,0.4063804,0.1667206,-2.3204489,benign flight
672860328,0.071156345,0.0658874,-0.06982321,0.24047619,0.0,0.0,0.0,-1.0,362048227,1382529203,39878,76974,2.045,3.1330001,0.77,1.3399999,101,32,0.679,0.61700004,0.284,-0.023000002,6.1633263,0.00010167342,5.888491e-06,0.00026432204,0.00013288508,0.012622793,0.0,0.20035686,0.20035705,0.43299899,3.9128852,3.9128852,0.0,0.022567105,-0.018441357,0.05349093,-0.059992075,-0.1140136,0.0,36.20482022080113,138.25291794231535,52.14443,76.88738,2.802787,4.170084,0.24529701,-0.15663032,-3.1920416,0.0039046502,0.041742917,-0.031582117,0.52123,0.40970612,0.1611141,-2.3409705,benign flight
339600034,0.10674213,0.069115244,-0.073930636,0.2704067,0.0,0.0,0.0,-1.0,362048071,1382529197,49206,86303,1.21,1.8820001,0.71,1.2099999,105,23,0.13000001,0.028,0.127,-0.20400001,0.0,0.023705475,4.29211e-06,0.020257013,0.00068049005,0.012042318,0.0,0.119496435,0.11953279,0.24278317,1.5091101,1.5091088,0.0,0.2661165,0.2474885,0.35064447,-0.16022909,-0.042266473,0.0,36.20480643517592,138.252918777719,44.40574,86.38838,2.2455301,4.372049,2.0387785,0.21333937,-0.15306324,0.20449091,-0.3062116,0.33761868,0.39787677,0.40767708,0.17530638,-2.475565,gps jamming
286952853,0.06721084,0.094630055,-0.081126824,0.2798057,0.0,0.0,0.0,-1.0,362048205,1382529186,48024,85121,2.43,3.3190002,0.87,1.3299999,101,27,0.363,0.24900001,0.263,-0.027,5.739625,0.0042949007,5.9815666e-06,0.0021315073,0.001551166,0.008190375,0.0,0.38195422,0.3819548,0.8101645,6.107898,6.1078963,0.0,-0.20251268,0.0037087575,0.20777822,-0.4866817,0.17102921,0.0,36.2048161277108,138.25292058882636,51.612938,85.64466,2.7467237,3.9302151,1.1605984,0.767636,0.0816856,-0.03900457,0.005479481,0.22060265,0.6480657,0.4059634,0.22377673,-2.3701959,gps spoofing
742058463,0.0069933916,0.1246596,-0.09353328,0.26301813,0.0,0.0,0.0,-1.0,362048188,1382529201,38562,75659,1.7580001,2.8420002,0.77,1.3399999,113,46,0.042000003,0.037,-0.020000001,0.17400001,2.6998765,0.054384697,6.0325256e-06,0.0052711596,0.00016274281,0.012013675,0.0,0.13745046,0.1374473,0.2929489,3.181817,3.181817,0.0,0.15380198,0.43229127,-0.1964803,0.07867117,0.113778055,0.0,36.20481986536232,138.25292199960322,52.479603,75.639984,2.7953458,4.169397,0.20945407,0.2199929,-3.5306554,0.1884002,0.22734022,-0.14770149,0.48032263,0.4036338,0.1561107,-2.2866154,benign flight
835158491,0.21857657,0.12453146,-0.09059615,0.2623964,0.0,0.0,0.0,-1.0,362048184,1382529257,37865,74962,2.0830002,3.012,0.77,1.14,96,39,0.272,0.264,0.065000005,0.008,1.6504296,0.00034276381,6.9037737e-06,0.00019619575,2.6134298e-05,0.013269406,0.0,0.52304584,0.52304274,1.1508484,4.4101734,4.410171,0.0,-0.00025714934,0.066947766,-0.07513181,-0.041634023,-0.05367884,0.0,36.20481748571172,138.25292494657677,53.13899,74.68181,2.8071272,4.1712317,-0.057186235,0.47971824,-4.190071,0.04133353,0.09795739,-0.02590952,0.5384582,0.420326,0.18296622,-2.325344,benign flight
747560845,0.21819215,0.07919089,-0.075991705,0.24937537,0.0,0.0,0.0,-1.0,362048248,1382529125,37986,75083,2.0500002,3.1780002,0.77,1.3399999,105,21,0.038000003,0.037,0.010000001,0.12200001,0.24033602,0.0005620074,6.116627e-06,0.0011341742,0.00052669214,0.015924912,0.0,0.36429155,0.36428759,0.7862676,4.417255,4.417257,0.0,0.07154274,-0.0042517167,-0.14931212,-0.24117076,0.04675895,0.0,36.20482227598957,138.25291276884616,52.588207,75.61731,2.8215964,4.1751018,0.47546837,-0.61292094,-3.6392908,-0.042395387,-0.11168748,-0.036333036,0.60940975,0.4571379,0.20156078,-2.363442,benign flight
312351811,0.13918193,0.063758805,-0.08504364,0.2854456,0.0,0.0,0.0,-1.0,362048150,1382529203,47867,84963,2.569,3.1740003,0.84,1.3,109,28,0.46500003,-0.42400002,0.19100001,0.035,5.739625,0.0017083053,7.0628016e-06,6.0331506e-05,0.0007221987,0.0074170087,0.0,1.4233636,1.4233619,3.1722217,6.1535773,6.153575,0.0,0.24655321,-0.1311215,0.06917097,0.33332062,-0.0689674,0.0,36.20481978285702,138.25291833770973,51.82686,85.210236,2.7336063,3.9285762,1.5962014,0.55913144,-0.13336754,-0.048843823,-0.058194943,0.12951407,0.58141255,0.38874036,0.18113932,-2.370825,gps spoofing
467898893,0.0068331826,0.085981384,-0.07640647,0.27760923,0.0,0.0,0.0,-1.0,362048116,1382529174,48116,85212,1.4310001,2.2840002,0.71,1.2099999,99,20,0.010000001,0.008,-0.006,0.014,2.734358,0.00049942615,3.525265e-06,0.000109383895,3.065442e-05,0.009602062,0.0,0.100914136,0.10091396,0.21234922,2.1393692,2.1393695,0.0,-0.035496183,0.009035565,-0.024097502,0.006494999,0.04049109,0.0,36.20481170969223,138.2529179681171,44.47693,85.20778,2.2506795,4.370852,2.6260247,0.14431606,-0.22950554,-0.02157882,0.0009839779,-0.0003733953,0.41877267,0.3933211,0.13873763,-2.4977455,gps jamming
379597734,0.14214659,0.088790484,-0.07582764,0.2709833,0.0,0.0,0.0,-1.0,362048038,1382529234,49540,86637,1.7700001,2.664,0.71,1.2099999,102,15,0.2,0.172,0.10300001,-0.104,1.9975964,0.008474182,2.0207149e-06,0.0023900578,0.0001338801,0.015876047,0.0,0.46846506,0.46846387,1.0228298,3.0867677,3.0867662,0.0,-0.31503406,-0.013983615,0.2472156,0.025314212,-0.10164356,0.0,36.20480298566653,138.25292240593058,44.450302,86.125916,2.2726197,4.3751016,1.6552106,0.53887844,-0.19762681,-0.07598679,-0.0006301404,-0.0279039,0.52981174,0.4392079,0.20337498,-2.5096364,gps jamming
467997614,0.12190291,0.061631106,-0.08030647,0.27909318,0.0,0.0,0.0,-1.0,362048116,1382529174,48116,85212,1.4310001,2.2840002,0.71,1.2099999,99,20,0.010000001,0.008,-0.006,0.014,2.734358,0.00049942615,3.525265e-06,0.000109383895,3.065442e-05,0.009602062,0.0,0.100914136,0.10091396,0.21234922,2.1393692,2.1393695,0.0,-0.035496183,0.009035565,-0.024097502,0.006494999,0.04049109,0.0,36.20481170969223,138.2529179681171,44.47693,85.20778,2.2506795,4.370852,2.625278,0.14069833,-0.22425325,-0.02788979,-0.013824328,0.008816458,0.4259786,0.39463434,0.14314014,-2.4978333,gps jamming
830958433,0.051397476,0.081554525,-0.08893962,0.26616147,0.0,0.0,0.0,-1.0,362048155,1382529230,37522,74618,1.9590001,2.9710002,0.77,1.14,103,33,0.047000002,-0.047000002,0.004,-0.017,2.139812,0.0058812597,6.543902e-06,1.7159084e-05,9.742867e-10,0.011596253,0.0,0.11091554,0.110915296,0.22987121,3.978996,3.978996,0.0,-0.12770309,-0.010132202,0.009930231,-0.0002898425,0.00031131506,0.0,36.20481577762915,138.25292308066022,53.202602,74.683685,2.801432,4.1696415,-0.24711636,0.31230006,-4.2536864,-0.047307808,-0.02569186,-0.056695774,0.5079315,0.4042404,0.15667413,-2.3150969,benign flight
